eventid,iyear,imonth,iday,extended,country_txt,region_txt,provstate,city,latitude,longitude,specificity,vicinity,summary,success,suicide,attacktype1_txt,targtype1_txt,gname,motive,individual,nperps,nperpcap,weaptype1_txt,nkill,nkillus,nkillter,nwound,nwoundus,nwoundte
1.97E+11,1970,7,2,0,Dominican Republic,Central America & Caribbean,National,Santo Domingo,18.456792,-69.951164,1,0,,1,0,Assassination,Private Citizens & Property,MANO-D,,0,,,Unknown,1,,,0,,
1.97E+11,1970,0,0,0,Mexico,North America,Federal,Mexico city,19.371887,-99.086624,1,0,,1,0,Hostage Taking (Kidnapping),Government (Diplomatic),23rd of September Communist League,,0,7,,Unknown,0,,,0,,
1.97001E+11,1970,1,0,0,Philippines,Southeast Asia,Tarlac,Unknown,15.478598,120.599741,4,0,,1,0,Assassination,Journalists & Media,Unknown,,0,,,Unknown,1,,,0,,
1.97001E+11,1970,1,0,0,Greece,Western Europe,Attica,Athens,37.99749,23.762728,1,0,,1,0,Bombing/Explosion,Government (Diplomatic),Unknown,,0,,,Explosives,,,,,,
1.97001E+11,1970,1,0,0,Japan,East Asia,Fukouka,Fukouka,33.580412,130.396361,1,0,,1,0,Facility/Infrastructure Attack,Government (Diplomatic),Unknown,,0,,,Incendiary,,,,,,
1.97001E+11,1970,1,1,0,United States,North America,Illinois,Cairo,37.005105,-89.176269,1,0,"1/1/1970: Unknown African American assailants fired several bullets at police headquarters in Cairo, Illinois, United States.  There were no casualties, however, one bullet narrowly missed several police officers.  This attack took place during heightened racial tensions, including a Black boycott of White-owned businesses, in Cairo Illinois.",1,0,Armed Assault,Police,Black Nationalists,To protest the Cairo Illinois Police Deparment,0,-99,-99,Firearms,0,0,0,0,0,0
1.97001E+11,1970,1,2,0,Uruguay,South America,Montevideo,Montevideo,-34.891151,-56.187214,1,0,,0,0,Assassination,Police,Tupamaros (Uruguay),,0,3,,Firearms,0,,,0,,
1.97001E+11,1970,1,2,0,United States,North America,California,Oakland,37.791927,-122.225906,1,0,"1/2/1970: Unknown perpetrators detonated explosives at the Pacific Gas & Electric Company Edes substation in Oakland, California, United States.  Three transformers were damaged costing an estimated $20,000 to $25,000.  There were no casualties.",1,0,Bombing/Explosion,Utilities,Unknown,,0,-99,-99,Explosives,0,0,0,0,0,0
1.97001E+11,1970,1,2,0,United States,North America,Wisconsin,Madison,43.076592,-89.412488,1,0,"1/2/1970: Karl Armstrong, a member of the New Years Gang, threw a firebomb at R.O.T.C. offices located within the Old Red Gym at the University of Wisconsin in Madison, Wisconsin, United States.  There were no casualties but the fire caused around $60,000 in damages to the building.",1,0,Facility/Infrastructure Attack,Military,New Year's Gang,To protest the War in Vietnam and the draft,0,1,1,Incendiary,0,0,0,0,0,0
1.97001E+11,1970,1,3,0,United States,North America,Wisconsin,Madison,43.07295,-89.386694,1,0,"1/3/1970: Karl Armstrong, a member of the New Years Gang, broke into the University of Wisconsin's Primate Lab and set a fire on the first floor of the building.  Armstrong intended to set fire to the Madison, Wisconsin, United States, Selective Service Headquarters across the street but mistakenly confused the building with the Primate Lab.  The fire caused slight damages and was extinguished almost immediately.",1,0,Facility/Infrastructure Attack,Government (General),New Year's Gang,To protest the War in Vietnam and the draft,0,1,1,Incendiary,0,0,0,0,0,0
1.97001E+11,1970,1,1,0,United States,North America,Wisconsin,Baraboo,43.4685,-89.744299,1,0,,0,0,Bombing/Explosion,Military,"Weather Underground, Weathermen",,0,,,Explosives,0,,,0,,
1.97001E+11,1970,1,6,0,United States,North America,Colorado,Denver,39.758968,-104.876305,1,0,"1/6/1970: Unknown perpetrators threw a Molotov cocktail into an Army Recruiting Station in Denver, Colorado, United States.  There were no casualties but damages to the station were estimated at $305.",1,0,Facility/Infrastructure Attack,Military,Left-Wing Militants,Protest the draft and Vietnam War,0,-99,-99,Incendiary,0,0,0,0,0,0
1.97001E+11,1970,1,8,0,Italy,Western Europe,Lazio,Rome,41.890961,12.490069,1,0,,1,0,Hijacking,Airports & Aircraft,Unknown,,0,1,,Firearms,0,0,0,0,0,0
1.97001E+11,1970,1,9,0,United States,North America,Michigan,Detroit,42.331685,-83.047924,1,0,"1/9/1970: Unknown perpetrators set off a firebomb at the Packard Properties building in Detroit, Michigan, United States.  The facility housed federal employees.  The building was damaged but there were no casualties.",1,0,Facility/Infrastructure Attack,Government (General),Left-Wing Militants,,0,-99,-99,Incendiary,0,0,0,0,0,0
1.97001E+11,1970,1,9,0,United States,North America,Puerto Rico,Rio Piedras,18.386932,-66.061127,1,0,"1/9/1970:  The Armed Commandos of Liberation claimed credit for setting a fire at the Baker's Store in Rio Piedras, Puerto Rico.  There were no casualties but the store was destroyed at a cost of $2,000,000.",1,0,Facility/Infrastructure Attack,Business,Armed Commandos of Liberation,To protest United States owned businesses in Puerto Rico,0,-99,-99,Incendiary,0,0,0,0,0,0
1.97001E+11,1970,1,10,0,East Germany (GDR),Eastern Europe,Berlin,Berlin,52.50153,13.401851,1,0,,1,0,Bombing/Explosion,Government (General),Commune 1,,0,,,Explosives,,,,,,
1.97001E+11,1970,1,11,0,Ethiopia,Sub-Saharan Africa,Unknown,Unknown,,,5,0,,1,0,Unknown,Military,Eritrean Liberation Front,,0,1,,Unknown,1,,,0,,
1.97001E+11,1970,1,12,0,United States,North America,New York,New York City,40.697132,-73.931351,1,0,"1/12/1970: Unknown perpetrators threw a pipe bomb into the vacant dean's office of James Madison High School in Brooklyn, New York, United States.  There were no casualties but the explosion caused minor damages.  Earlier in the day anti-war and pro-Black Panther statements were discovered painted outside the walls of the school.",1,0,Bombing/Explosion,Educational Institution,Black Nationalists,Suspected motives were to protest the Vietnam War and/or show support for the Black Panther Party and/or show support for the Young Lords.,0,-99,-99,Explosives,0,0,0,0,0,0
1.97001E+11,1970,1,12,0,United States,North America,Puerto Rico,Rio Grande,18.379998,-65.830948,1,0,"1/12/1970: Unknown perpetrators detonated a bomb at a General Electric factory in Rio Grande, Puerto Rico during a strike.  There were no casualties and it is unknown if the factory sustained any damages.",1,0,Bombing/Explosion,Business,Strikers,,0,-99,-99,Explosives,0,0,0,0,0,0
1.97001E+11,1970,1,13,0,United States,North America,Washington,Seattle,47.610786,-122.331306,1,0,"1/13/1970: Unknown perpetrators firebombed Fuson's Department Store in Seattle, Washington, United States.  There were no casualties but the store sustained an estimated $17,000 in damages.  Less than a week earlier, the store owner shot and killed an African American male attempting to rob the store.",1,0,Facility/Infrastructure Attack,Business,Black Nationalists,Retaliation for the store owner who shot and killed an African American attempting to commit a robbery at his store.,0,-99,-99,Incendiary,0,0,0,0,0,0
1.97001E+11,1970,1,14,0,United States,North America,Illinois,Champaign,40.116748,-88.23927,1,0,"1/14/1970: Suspected Black militants threw two firebombs into the Champaign Police Department in Champaign, Illinois, United States.  The building was damaged and one police officer was severely burned.",1,0,Facility/Infrastructure Attack,Police,Black Nationalists,,0,-99,-99,Incendiary,0,0,0,1,1,0
1.97001E+11,1970,1,15,0,Uruguay,South America,Montevideo,Montevideo,-34.891151,-56.187214,1,0,,1,0,Armed Assault,Educational Institution,Tupamaros (Uruguay),,0,5,,Firearms,0,,,0,,
1.97001E+11,1970,1,19,0,United States,North America,Washington,Seattle,47.610786,-122.331306,1,0,"1/17/1970: Three African Americans were suspected of detonating a bomb on the Seattle University campus in Seattle, Washington, United States.  There were no casualties but the Liberal Arts and Garrand buildings sustained $2,200 in damages.",1,0,Bombing/Explosion,Educational Institution,Black Nationalists,The incident took place during disturbances between the Black Student Union and the university.,0,3,-99,Explosives,0,0,0,0,0,0
1.97001E+11,1970,1,19,0,United States,North America,Washington,Seattle,47.610786,-122.331306,1,0,"1/17/1970: Silas and Judith Bissell placed an explosive device in the vicinity of the Air Force R.O.T.C. at the University of Washington campus in Seattle, Washington, United States.  The device was discovered and subsequently disarmed.",0,0,Bombing/Explosion,Military,Student Radicals,The incident took place during heightened antiwar sentiments in Seattle Washington.,0,2,2,Explosives,0,0,0,0,0,0
1.97001E+11,1970,1,19,0,United States,North America,New Jersey,Jersey City,40.717892,-74.067467,1,0,"1/19/1970: Unknown perpetrators ignited a fire at the Black Panther Party headquarters in Jersey City, New Jersey, United States.  Two hours later shots were fired at the building.  There were no casualties but the building sustained minor damages.",1,0,Facility/Infrastructure Attack,Violent Political Party,White supremacists/nationalists,Intimidate the Black Panther Party.,0,-99,-99,Incendiary,0,0,0,0,0,0
1.97001E+11,1970,1,20,0,Guatemala,Central America & Caribbean,Guatemala,Guatemala City,14.622869,-90.529068,1,0,,1,0,Assassination,Government (Diplomatic),Unknown,,0,1,,Unknown,1,,,0,,
1.97001E+11,1970,1,21,0,Philippines,Southeast Asia,Metropolitan Manila,Quezon City,14.67428,121.057495,1,0,,1,0,Bombing/Explosion,Government (Diplomatic),Unknown,,0,,,Explosives,0,,,0,,
1.97001E+11,1970,1,22,0,Venezuela,South America,Caracas,Caracas,10.482834,-66.962128,1,0,,1,0,Hostage Taking (Kidnapping),Business,Armed Forces of National Liberation- Venezuela (FALN),,0,3,,Unknown,0,,,0,,
1.97001E+11,1970,1,22,0,United States,North America,Nebraska,South Sioux City,42.47031,-96.413949,1,0,"1/22/1970: Unknown perpetrators detonated an explosive device near a private home in South Sioux City, Nebraska, United States.  There were no casualties, however, a sizable hole was left in the house and windows were broken.  This attack was one of many instances of violence in South Sioux City during the Iowa Beef Packers strike.",1,0,Bombing/Explosion,Private Citizens & Property,Strikers,The attack occurred during the violent Iowa Beef Packers strike in South Sioux City.,0,-99,-99,Explosives,0,0,0,0,0,0
1.97001E+11,1970,1,25,0,United States,North America,Mississippi,West Point,33.60651,-88.650419,1,0,"1/25/1970: Unknown perpetrators burnt down a building that was a meeting spot for African Americans in West Point, Mississippi, United States.  There were no injuries or fatalities.  The attack occurred amidst widespread disapproval of school desegregation by the White population of West Point.",1,0,Facility/Infrastructure Attack,Private Citizens & Property,White supremacists/nationalists,The motive of the attack was to prevent the African American community of West Point Mississippi from organizing.,0,-99,-99,Incendiary,0,0,0,0,0,0
1.97001E+11,1970,1,25,0,United States,North America,New York,New York City,40.697132,-73.931351,1,0,"1/25/1970: Responding to what authorities believe was a fake report to lure police to Manhattan, New York, United States, Patrolmen William Kivlehan and Ralph Bax were shot at from a rooftop by unknown perpetrators after they got out of their car.  Officer Kivlehan was hit five times and officer Bax was hit three times.  Both policemen survived.",1,0,Armed Assault,Police,Black Nationalists,To kill police,0,-99,-99,Firearms,0,0,0,2,2,0
1.97001E+11,1970,1,26,0,United States,North America,Mississippi,West Point,33.60651,-88.650419,1,0,"1/26/1970: Unknown African American assailants, unsatisfied with the courts decision on desegregation, threw a stick of dynamite at the Clay County Courthouse in West Point, Mississippi, United States.  There were no injuries or fatalities but the windows of the building were shattered.",1,0,Bombing/Explosion,Government (General),Black Nationalists,African American opposition to the school integration plan instituted by the federal government.  The government plan closed two Black schools.,0,-99,-99,Explosives,0,0,0,0,0,0
1.97001E+11,1970,1,26,0,United States,North America,New York,New York City,40.697132,-73.931351,1,0,"1/26/1970: Police officer Joseph Blik was on foot patrol in Queens, New York, United States when two people in a car stopped to ask him for directions.  The perpetrators in the car immediately fired two shots at Officer Blik and then drove away.  Officer Blik was not hit.",1,0,Armed Assault,Police,Black Nationalists,To kill police,0,-99,-99,Firearms,0,0,0,0,0,0
1.97001E+11,1970,1,27,0,United States,North America,Ohio,Norwalk,41.241996,-82.615241,1,0,"1/27/1970: Unknown perpetrators broke into the Selective Service Offices located at the Citizens Bank Building in Norwalk, Ohio, United States.  The perpetrators took out the draft records and set them on fire.  The attack caused an estimated $8,800 in damages.",1,0,Facility/Infrastructure Attack,Government (General),Left-Wing Militants,Protest and sabotage the draft,0,-99,-99,Incendiary,0,0,0,0,0,0
1.97001E+11,1970,1,28,0,East Germany (GDR),Eastern Europe,Berlin,Berlin,52.50153,13.401851,1,0,,1,0,Facility/Infrastructure Attack,Police,Unknown,,0,,,Incendiary,,,,,,
1.97001E+11,1970,1,28,0,United States,North America,Washington,Seattle,47.610786,-122.331306,1,0,"1/28/1970: Unknown perpetrators detonated an explosive device at Temple De Hirsch in Seattle, Washington, United States.  There were no casualties but the building sustained $1,000 in damages.  During this time period, there were numerous bombings in the Seattle area.",1,0,Bombing/Explosion,Religious Figures/Institutions,White supremacists/nationalists,,0,-99,-99,Explosives,0,0,0,0,0,0
1.97001E+11,1970,1,30,0,United States,North America,Nebraska,South Sioux City,42.479999,-96.413046,1,0,"1/30/1970: In a series of two incidents that were possibly related, unknown perpetrators detonated an explosive device at a building in South Sioux City, Nebraska, United States.  There were no casualties but the blast damaged the foundation of the building.  This attack was one of many instances of violence in South Sioux City during the Iowa Beef Packers strike.",1,0,Bombing/Explosion,Unknown,Strikers,The attack occurred during the violent Iowa Beef Packers strike in South Sioux City.,0,-99,-99,Explosives,0,0,0,0,0,0
1.97001E+11,1970,1,30,0,United States,North America,Nebraska,South Sioux City,42.46634,-96.41405,1,0,"1/30/1970: In a series of two incidents that were possibly related, unknown perpetrators detonated an explosive device at the A & B Boat Shop in South Sioux City, Nebraska, United States.  There were no casualties but the blast caused $2,500 in damages.  This attack was one of many instances of violence in South Sioux City during the Iowa Beef Packers strike.",1,0,Bombing/Explosion,Business,Strikers,The attack occurred during the violent Iowa Beef Packers strike in South Sioux City.,0,-99,-99,Explosives,0,0,0,0,0,0
1.97001E+11,1970,1,30,0,United States,North America,Florida,Coral Gables,25.720851,-80.277857,1,0,"1/20/1970: Unknown perpetrators firebombed the premises of the Army R.O.T.C. at the University of Miami in Coral Gables, Florida, United States.  There were no casualties but an Army personal carrier was damaged.  Two firebombs did not explode.",1,0,Facility/Infrastructure Attack,Military,Student Radicals,To protest the R.O.T.C. program and the War in Vietnam,0,-99,-99,Incendiary,0,0,0,0,0,0
1.97001E+11,1970,1,31,0,Philippines,Southeast Asia,Tarlac,Bamban,15.675051,120.331618,1,0,,0,0,Unknown,Military,New People's Army (NPA),,0,,,Unknown,0,,,1,,
1.97001E+11,1970,1,31,0,United States,North America,Colorado,Denver,39.758968,-104.876305,1,0,"1/31/1970: Unknown perpetrators bombed the Police Band Building in Denver, Colorado, United States.  There were no casualties but a restroom was damaged.",1,0,Bombing/Explosion,Police,Unknown,,0,-99,-99,Explosives,0,0,0,0,0,0
1.97002E+11,1970,2,1,0,United States,North America,Oregon,Portland,45.511795,-122.675629,1,0,"2/1/1970: An unknown perpetrator broke into the Northeast Oregon building in Portland, Oregon, United States, which housed a Selective Service office and set fire to draft records.  About two hundred and fifty files were destroyed causing $4,189 in damage.",1,0,Facility/Infrastructure Attack,Government (General),Left-Wing Militants,Protest and sabotage the draft,0,1,-99,Incendiary,0,0,0,0,0,0
1.97002E+11,1970,2,1,0,United States,North America,Illinois,Cairo,37.005105,-89.176269,1,0,"2/1/1970: Unknown perpetrators fired shots at an Illinois State Police Car that was patrolling the all-Black Pyramid Courts housing development in Cairo, Illinois, United States.  Three bullets struck the police car of Officers Harold Nelson and John Abercrombie.  Neither officer was injured but the windshield of vehicle car was shattered.",1,0,Armed Assault,Police,Black Nationalists,To protest police presence in Pyramid Courts,0,-99,-99,Firearms,0,0,0,0,0,0
1.97002E+11,1970,2,2,0,United States,North America,New York,New York City,40.697132,-73.931351,1,0,"2/2/1970: An incendiary device was discovered at Mays department store in Manhattan, New York, United States.  The device was dismantled before it inflicted any damage.  The next day, two incendiary devices were discovered at other department stores in New York City.",0,0,Facility/Infrastructure Attack,Business,Unknown,,0,-99,-99,Incendiary,0,0,0,0,0,0
1.97002E+11,1970,2,3,0,United States,North America,New York,New York City,40.697132,-73.931351,1,0,"2/3/1970: In a series of related attacks, an incendiary device was discovered and dismantled at Alexander's Department Store in the Bronx, New York, United States.",0,0,Facility/Infrastructure Attack,Business,Unknown,,0,-99,-99,Incendiary,0,0,0,0,0,0
1.97002E+11,1970,2,3,0,United States,North America,New York,New York City,40.697132,-73.931351,1,0,"2/3/1970: In a series of related attacks, an incendiary device was ignited at Alexander's Department Store in Manhattan, New York, United States.  The device was immediately doused with water and did not cause any damage.",0,0,Facility/Infrastructure Attack,Business,Unknown,,0,-99,-99,Incendiary,0,0,0,0,0,0
1.97002E+11,1970,2,4,0,United States,North America,Ohio,Akron,41.084195,-81.514059,1,0,"2/4/1970: In an attack suspected of being connected with the Iowa Beef Packer's Strike, a dynamite bomb exploded near a parked car in Akron, Ohio, United States.  There were no casualties and the car sustained only minor damages.",1,0,Bombing/Explosion,Private Citizens & Property,Strikers,The attack occurred during the violent Iowa Beef Packers strike.,0,-99,-99,Explosives,0,0,0,0,0,0
1.97002E+11,1970,2,6,0,United States,North America,Colorado,Denver,39.758968,-104.876305,1,0,"2/6/1970: Unknown anti-desegregationists detonated at least twelve dynamite bombs damaging thirty-nine vehicles, most of them school buses, in Denver, Colorado, United States.  There were no casualties.",1,0,Bombing/Explosion,Transportation,Black Nationalists,Sabotage/protest the integration of Denver City Schools.,0,3,-99,Explosives,0,0,0,0,0,0
1.97002E+11,1970,2,6,0,United States,North America,Washington,Seattle,47.610786,-122.331306,1,0,"2/6/1970: Suspected White Racists detonated a bomb at the house of State Senator Fred Dore in Seattle, Washington, United States.  There were no casualties, but the house sustained major damages.  Dore was a White sympathizer of African American causes.",1,0,Bombing/Explosion,Government (General),White supremacists/nationalists,To intimidate/show dissatisfaction with White sympathizers of the African American cause.,0,-99,-99,Explosives,0,0,0,0,0,0
1.97002E+11,1970,2,6,0,United States,North America,Washington,Seattle,47.610786,-122.331306,1,0,"2/6/1970: Unknown perpetrators detonated a bomb at a synagogue in Seattle, Washington, United States.  There were no casualties but the building as well as surrounding residences sustained minor damage.   During this time period, there were numerous bombings in the Seattle area.",1,0,Bombing/Explosion,Religious Figures/Institutions,White supremacists/nationalists,,0,-99,-99,Explosives,0,0,0,0,0,0
1.97002E+11,1970,2,6,0,United States,North America,Puerto Rico,Dorado,18.460791,-66.264884,1,0,"2/6/1970: In a series of related events, the Armed Revolutionary Independence Movement (MIRA) claimed credit for igniting firebombs at a Selective Service office in Dorado, Puerto Rico.  There were no casualties and it is unknown if the firebombs caused any damage.",1,0,Facility/Infrastructure Attack,Government (General),Armed Revolutionary Independence Movement (MIRA),To fight imperialism and exploitation.,0,-99,-99,Incendiary,0,0,0,0,0,0
1.97002E+11,1970,2,6,0,United States,North America,Puerto Rico,Rio Piedras,18.386932,-66.061127,1,0,"2/6/1970: In a series of related events, the Armed Revolutionary Independence Movement (MIRA) claimed credit for igniting firebombs at a General Electric facility in Rio Piedras, Puerto Rico.  There were no casualties and it is unknown if the firebombs caused any damage.",1,0,Facility/Infrastructure Attack,Utilities,Armed Revolutionary Independence Movement (MIRA),To fight imperialism and exploitation.,0,-99,-99,Incendiary,0,0,0,0,0,0
1.97002E+11,1970,2,6,0,United States,North America,Puerto Rico,Carolina,18.441963,-66.026316,1,0,"2/6/1970: In a series of related events, the Armed Revolutionary Independence Movement (MIRA) claimed credit for igniting firebombs at Hotel San Juan in Carolina, Puerto Rico.  There were no casualties and it is unknown if the firebombs caused any damage.",1,0,Facility/Infrastructure Attack,Business,Armed Revolutionary Independence Movement (MIRA),To fight imperialism and exploitation.,0,-99,-99,Incendiary,0,0,0,0,0,0
1.97002E+11,1970,2,6,0,United States,North America,Massachusetts,Boston,42.3505,-71.105399,1,0,"2/6/1970: Unknown perpetrators firebombed an R.O.T.C. office at Boston University in Boston, Massachusetts, United States.  There were no casualties but the resulting fire damaged the office.",1,0,Facility/Infrastructure Attack,Military,Student Radicals,To protest the R.O.T.C. program,0,-99,-99,Incendiary,0,0,0,0,0,0
1.97002E+11,1970,2,7,0,United States,North America,Wisconsin,Whitewater,42.838355,-88.743224,1,0,"2/7/1970: Unknown perpetrators set a fire in Old Mail Hall at Wisconsin State College in Whitewater, Wisconsin, United States.  There were no casualties but the building sustained an estimated $1,000,000 in damages.",1,0,Facility/Infrastructure Attack,Educational Institution,Student Radicals,,0,-99,-99,Incendiary,0,0,0,0,0,0
1.97002E+11,1970,2,8,0,United States,North America,New York,New York City,40.697132,-73.931351,1,0,"2/8/1970: In a series of related events, the Armed Revolutionary Independence Movement (MIRA) claimed credit for bombing the General Electric Service Center in Queens, New York, United States.  There were no casualties but the building sustains minor damages.",1,0,Bombing/Explosion,Business,Armed Revolutionary Independence Movement (MIRA),To fight imperialism and exploitation.,0,-99,-99,Explosives,0,0,0,0,0,0
1.97002E+11,1970,2,8,0,United States,North America,New York,New York City,40.697132,-73.931351,1,0,"2/8/1970: In a series of related events, the Armed Revolutionary Independence Movement (MIRA) claimed credit for bombing the General Electric Service Center in Brooklyn, New York, United States.  There are no casualties but the building sustains minor damages.",1,0,Bombing/Explosion,Business,Armed Revolutionary Independence Movement (MIRA),To fight imperialism and exploitation.,0,-99,-99,Explosives,0,0,0,0,0,0
1.97002E+11,1970,2,9,0,United States,North America,New York,New York City,40.697132,-73.931351,1,0,"2/9/1970: In a series of related events, a member of the Armed Revolutionary Independence Movement (MIRA) was suspected of placing a bomb at the General Electric Headquarters in Manhattan, New York, United States.   The bomb was discovered and subsequently removed.",0,0,Bombing/Explosion,Business,Armed Revolutionary Independence Movement (MIRA),To fight imperialism and exploitation.,0,1,1,Explosives,0,0,0,0,0,0
1.97002E+11,1970,2,9,0,United States,North America,Ohio,Batavia,39.07859,-84.179414,1,0,"2/9/1970: Unknown perpetrators in Batavia, Ohio, United States, bombed two cars belonging to Leslie Jewel, an employee of General Electric that was not part of the union.  The automobiles were damaged, but there were no casualties.  There had been a recent labor strike at the nearby General Electric Evendale plant.",1,0,Bombing/Explosion,Private Citizens & Property,Strikers,Protest employees of General Electric who were not union members,0,-99,-99,Explosives,0,0,0,0,0,0
1.97002E+11,1970,2,10,0,West Germany (FRG),Western Europe,Bavaria,Munich,48.139126,11.580186,1,0,,1,0,Armed Assault,Airports & Aircraft,Popular Front for the Liberation of Palestine (PFLP),,0,3,,Firearms,1,,,,,
1.97002E+11,1970,2,11,0,United States,North America,Michigan,Ypsilanti,42.263414,-83.665281,1,0,"2/11/1970: Unknown perpetrators threw a firebomb into a building at Washtenaw Community College in Ypsilanti, Michigan, United States.  There were no casualties, but the buildings sustained an estimated $2,500 in damages.",1,0,Facility/Infrastructure Attack,Educational Institution,Student Radicals,,0,-99,-99,Incendiary,0,0,0,0,0,0
1.97002E+11,1970,2,13,0,United States,North America,California,Berkeley,37.874043,-122.280022,1,0,,1,0,Bombing/Explosion,Police,Unknown,,0,,,Explosives,0,,,7,,
1.97002E+11,1970,2,13,0,West Germany (FRG),Western Europe,Bavaria,Munich,48.139126,11.580186,1,0,,1,0,Facility/Infrastructure Attack,Private Citizens & Property,Popular Front for the Liberation of Palestine (PFLP),,0,,,Incendiary,7,,,9,,
1.97002E+11,1970,2,13,0,United States,North America,California,Berkeley,37.874043,-122.280022,1,0,"2/13/1970: Unknown perpetrators detonated two dynamite bombs in the parking lot of the Berkeley Police Station in California, United States, during a shift change.  Seven police officers were injured, three cars were destroyed, and windows were shattered at nearby buildings.",1,0,Bombing/Explosion,Police,Black Nationalists,To intimidate the police.,0,-99,-99,Explosives,0,0,0,7,7,0
1.97002E+11,1970,2,15,0,United States,North America,New York,New York City,40.697132,-73.931351,1,0,"7/15/1970: Unknown perpetrators bombed the Chase Manhattan Bank in Manhattan, New York, United States.  There were no casualties, however, the glass doors of the building and windows were shattered.",1,0,Bombing/Explosion,Business,Left-Wing Militants,,0,-99,-99,Explosives,0,0,0,0,0,0
1.97002E+11,1970,2,15,0,United States,North America,Oregon,Eugene,44.04483,-123.072606,1,0,"2/15/1970: Unknown perpetrators set fire to a building housing an R.O.T.C. storage area at the University of Oregon in Eugene, Oregon, United States.  One fireman was injured fighting the blaze and the men's physical education building sustained an estimated $350,000 in damages.  The incident took place a week after the university voted to retain the R.O.T.C. program.",1,0,Facility/Infrastructure Attack,Military,Student Radicals,To protest the University of Oregon's decision to retain the R.O.T.C. program,0,-99,-99,Incendiary,0,0,0,1,1,0
1.97002E+11,1970,2,16,0,United States,North America,California,San Francisco,37.755363,-122.443352,1,0,,1,0,Bombing/Explosion,Police,Unknown,,0,,,Explosives,1,,,0,,
1.97002E+11,1970,2,16,0,United States,North America,California,Berkeley,37.874043,-122.280022,1,0,,1,0,Bombing/Explosion,Business,Unknown,,0,,,Explosives,0,,,0,,
1.97002E+11,1970,2,16,0,United States,North America,California,Berkeley,37.874043,-122.280022,1,0,,1,0,Bombing/Explosion,Business,Unknown,,0,,,Explosives,0,,,0,,
1.97002E+11,1970,2,16,0,United States,North America,California,San Francisco,37.755363,-122.443352,1,0,"2/16/1970: Four hours after a San Francisco Police Station was bombed in California, United States, a sniper took aim at three police officers.  However, police fired at the sniper before he could get a shot off.  The sniper and a companion fled the scene before being apprehended.",0,0,Armed Assault,Police,Left-Wing Militants,To intimidate the police.,0,1,-99,Firearms,0,0,0,0,0,0
1.97002E+11,1970,2,17,0,United States,North America,California,Oakland,37.791927,-122.225906,1,0,"2/17/1970: A day after bombings in San Francisco and Berkeley, twenty-four sticks of dynamite were discovered at Walter Boysen Paint Company in Oakland, California, United States.  The bombs never detonated.",0,0,Bombing/Explosion,Business,Unknown,,0,-99,-99,Explosives,0,0,0,0,0,0
1.97002E+11,1970,2,17,0,United States,North America,Maryland,Buckeystown,39.334825,-77.431653,1,0,"2/17/1970: Unknown perpetrators bombed a power pole in Buckeystown, Maryland, United States.  There were no casualties, however, as a result of the bombing, five-hundred homes and two industrial facilities lost power.  Windows were also shattered in buildings a quarter of a mile a way.",1,0,Bombing/Explosion,Utilities,Unknown,,0,-99,-99,Explosives,0,0,0,0,0,0
1.97002E+11,1970,2,17,0,United States,North America,Louisiana,Covington,30.493919,-90.132512,1,0,"2/17/1970: Unknown perpetrators detonated a bomb at Covington High School in Louisiana, United States.  There were no casualties but the building sustained minor damages.  The bombing took place six months before the school was integrated.",1,0,Bombing/Explosion,Educational Institution,White supremacists/nationalists,Suspected motive was to protest school integration.,0,-99,-99,Explosives,0,0,0,0,0,0
1.97002E+11,1970,2,17,0,United States,North America,Washington,Seattle,47.610786,-122.331306,1,0,"2/17/1970: Unknown perpetrators placed a gasoline bomb underneath the Armory at the University of Washington in Seattle, United States.  The bomb did not explode and was later discovered and removed.",0,0,Bombing/Explosion,Military,Student Radicals,Protest the War in Vietnam,0,-99,-99,Explosives,0,0,0,0,0,0
1.97002E+11,1970,2,18,0,United States,North America,Ohio,Cleveland,41.479561,-81.675461,1,0,"2/18/1970: Amidst a period racial strife at Cuyahoga Community College in Cleveland, Ohio, United States, unknown perpetrators detonated a bomb that damaged a car of a police officer working as a security guard.",1,0,Bombing/Explosion,Police,Black Nationalists,,0,-99,-99,Explosives,0,0,0,0,0,0
1.97002E+11,1970,2,18,0,United States,North America,California,Vallejo,38.10083,-122.254954,1,0,"2/18/1970: Booby trapped handgrenades were discovered wired to a car in the parking lot of the Vallejo Police Department in California, United States.  The device was deactivated.",1,0,Bombing/Explosion,Police,Black Nationalists,,0,-99,-99,Explosives,0,0,0,0,0,0
1.97002E+11,1970,2,20,0,United States,North America,Connecticut,Hartford,41.763325,-72.674069,1,0,"2/20/1970: Unknown perpetrators threw a Molotov cocktail at a Federal Building that housed a United States Courthouse in Hartford, Connecticut, United States.  There were no casualties but the building sustained an estimated $450 in damages.",1,0,Facility/Infrastructure Attack,Government (General),Left-Wing Militants,,0,-99,-99,Incendiary,0,0,0,0,0,0
1.97002E+11,1970,2,20,0,United States,North America,New York,New York City,40.697132,-73.931351,1,0,"2/20/1970: Unknown perpetrators ignited a firebomb at the Columbia University International Law Library in Manhattan, New York, United States.  There were no casualties but the building sustained slight damages.",1,0,Facility/Infrastructure Attack,Educational Institution,Student Radicals,,0,-99,-99,Incendiary,0,0,0,0,0,0
1.97002E+11,1970,2,20,0,United States,North America,Washington,Seattle,47.610786,-122.331306,1,0,"2/20/1970: Unknown perpetrators placed two dynamite bombs at the construction site of the School of Architecture at the University of Washington in Seattle, Washington, United States.  Only one of the two bombs exploded causing little damage.  There were no casualties.",1,0,Bombing/Explosion,Educational Institution,Student Radicals,,0,-99,-99,Explosives,0,0,0,0,0,0
1.97002E+11,1970,2,21,0,West Germany (FRG),Western Europe,Hesse,Frankfurt,50.11797,8.644191,1,0,,1,0,Bombing/Explosion,Airports & Aircraft,"Popular Front for the Liberation of Palestine, Gen Cmd (PFLP-GC)",,0,4,,Explosives,0,,,0,,
1.97002E+11,1970,2,21,0,Switzerland,Western Europe,Zurich,Zurich,47.36865,8.539182,1,0,,1,0,Bombing/Explosion,Airports & Aircraft,"Popular Front for the Liberation of Palestine, Gen Cmd (PFLP-GC)",,0,,,Explosives,47,,,0,,
1.97002E+11,1970,2,21,0,United States,North America,New York,New York City,40.697132,-73.931351,1,0,"2/21/1970: Unknown perpetrators threw a firebomb at a police car in front of the Charles Street Police Station in Greenwich, New York, United States.  Another bomb was thrown to the pavement  seventy-five feet away.  The attacks caused no damages or casualties.",0,0,Facility/Infrastructure Attack,Police,Left-Wing Militants,,0,-99,-99,Incendiary,0,0,0,0,0,0
1.97002E+11,1970,2,21,0,United States,North America,New York,New York City,40.697132,-73.931351,1,0,"2/21/1970: Two Military Recruiting Stations in the vicinity of Brooklyn College were firebombed by unknown perpetrators in New York, United States.  There were no casualties but the recruiting stations sustained minor damages before the fire was extinguished.",1,0,Facility/Infrastructure Attack,Military,Left-Wing Militants,,0,-99,-99,Incendiary,0,0,0,0,0,0
1.97002E+11,1970,2,21,0,United States,North America,New York,New York City,40.697132,-73.931351,1,0,"2/21/1970: The Weathermen claimed credit for bombing the residence of State Supreme Court Justice John Murtagh New York, United States.  The attack caused no casualties but the house sustained minor damages.  Judge Murtagh was presiding over a trial of thirteen Black Panther members at the time.    Anti-Vietnam war and pro-Black Panther graffiti was left at the scene of the attack.",1,0,Bombing/Explosion,Private Citizens & Property,"Weather Underground, Weathermen",Protest Vietnam War and show support for Black Panthers.,0,4,-99,Explosives,0,0,0,0,0,0
1.97002E+11,1970,2,21,0,United States,North America,Colorado,Denver,39.758968,-104.876305,1,0,"2/21/1970: Unknown perpetrators threw a firebomb into the residence of James C. Perrill in Denver, Colorado, United States.  There were no casualties and it is unknown if the house was damaged.  The attack occurred during heightened racial tensions due to the integration of Denver City Schools and Perrill was  a conservative school board member.",1,0,Facility/Infrastructure Attack,Private Citizens & Property,Black Nationalists,Protest anti-integrationists of the Denver City Schools.,0,-99,-99,Incendiary,0,0,0,0,0,0
1.97002E+11,1970,2,22,0,United States,North America,New York,Ithaca,42.455233,-76.475847,1,0,"2/22/1970: Unknown perpetrators threw kerosene flare pots at the Wari House Dormitory which housed the Black Women's Cooperative at Cornell University in Ithaca, New York, United States.  The incendiary tossed at the dormitory failed to ignite, but an incendiary thrown through the window of a car parked in front of the dormitory burst into flames and caused minor damages to the vehicle.  There were no casualties.",1,0,Facility/Infrastructure Attack,Educational Institution,White supremacists/nationalists,To intimidate the African American community at Cornell University,0,-99,0,Incendiary,0,0,0,0,0,0
1.97002E+11,1970,2,22,0,United States,North America,Wisconsin,Prairie du Sac,43.287052,-89.724361,1,0,"2/22/1970: Karl Armstrong, a member of the New Years Gang, attempted to bomb the Wisconsin Power and Light substation in Prairie du Sac, Wisconsin, United States.  Carrying thirteen sticks of dynamite he broke into the substation, but fled the scene when a night security guard arrived unexpectedly.  The substation supplied power to the Badger Ammunition Plant.",0,0,Bombing/Explosion,Utilities,New Year's Gang,To sabotage the Badger Ammunition Plant,0,1,1,Explosives,0,0,0,0,0,0
1.97002E+11,1970,2,23,0,United States,North America,Nebraska,South Sioux City,42.47031,-96.413949,1,0,"2/23/1970: In a series of related attacks, unknown perpetrators bombed four separate power transmission poles in the Dakota City and Sioux City areas in Nebraska, United States.  There were no casualties and none of the dynamite blasts broke off any of the poles.   These attacks were one of many instances of violence in South Sioux City during the Iowa Beef Packers strike.",1,0,Bombing/Explosion,Utilities,Strikers,The attack occurred during the violent Iowa Beef Packers strike in South Sioux City.,0,-99,-99,Explosives,0,0,0,0,0,0
1.97002E+11,1970,2,23,0,United States,North America,Nebraska,South Sioux City,42.47031,-96.413949,1,0,"2/23/1970: In a series of related attacks, unknown perpetrators bombed four separate power transmission poles in the Dakota City and Sioux City areas in Nebraska, United States.  There were no casualties and none of the dynamite blasts broke off any of the poles.   These attacks were one of many instances of violence in South Sioux City during the Iowa Beef Packers strike.",1,0,Bombing/Explosion,Utilities,Strikers,The attack occurred during the violent Iowa Beef Packers strike in South Sioux City.,0,-99,-99,Explosives,0,0,0,0,0,0
1.97002E+11,1970,2,23,0,United States,North America,Nebraska,South Sioux City,42.47031,-96.413949,1,0,"2/23/1970: In a series of related attacks, unknown perpetrators bombed four separate power transmission poles in the Dakota City and Sioux City areas in Nebraska, United States.  There were no casualties and none of the dynamite blasts broke off any of the poles.   These attacks were one of many instances of violence in South Sioux City during the Iowa Beef Packers strike.",1,0,Bombing/Explosion,Utilities,Strikers,The attack occurred during the violent Iowa Beef Packers strike in South Sioux City.,0,-99,-99,Explosives,0,0,0,0,0,0
1.97002E+11,1970,2,23,0,United States,North America,Nebraska,South Sioux City,42.47031,-96.413949,1,0,"2/23/1970: In a series of related attacks, unknown perpetrators bombed four separate power transmission poles in the Dakota City and Sioux City areas in Nebraska, United States.  There were no casualties and none of the dynamite blasts broke off any of the poles.   These attacks were one of many instances of violence in South Sioux City during the Iowa Beef Packers strike.",1,0,Bombing/Explosion,Utilities,Strikers,The attack occurred during the violent Iowa Beef Packers strike in South Sioux City.,0,-99,-99,Explosives,0,0,0,0,0,0
1.97002E+11,1970,2,23,0,United States,North America,Arizona,Tucson,32.222232,-110.925752,1,0,"2/23/1970: Unknown perpetrators detonated a dynamite bomb in front of the Selective Service Headquarters in Tucson, Arizona, United States. There were no casualties, however, all of the windows of the building shattered.",1,0,Bombing/Explosion,Military,Left-Wing Militants,Protest the draft.,0,-99,-99,Explosives,0,0,0,0,0,0
1.97002E+11,1970,2,24,0,United States,North America,Colorado,Denver,39.758968,-104.876305,1,0,"2/24/1970: Unknown perpetrators detonated a pipe bomb in front of the house of Wilfred Keyes in Denver, Colorado, United States.  There were no casualties, however, the front porch was destroyed and many windows were shattered.  Keyes was the lead plaintiff in a court case calling for the desegregation of Denver City Schools.",1,0,Bombing/Explosion,Private Citizens & Property,White supremacists/nationalists,Protest the desegregation of Denver City Schools.,0,-99,-99,Explosives,0,0,0,0,0,0
1.97002E+11,1970,2,24,0,United States,North America,Illinois,Champaign,40.101952,-88.227161,1,0,"2/24/1970: Unknown perpetrators threw a Molotov cocktail into the Armory at the University of Illinois, Champaign-Urbana, United States.  There were no casualties but the firebomb caused $2,000 in damages.  The offices of the R.O.T.C. were located in the Armory",1,0,Facility/Infrastructure Attack,Military,Student Radicals,Protest secret government research at the University of Illinois and the R.O.T.C. program.,0,-99,-99,Incendiary,0,0,0,0,0,0
1.97002E+11,1970,2,27,0,United States,North America,Colorado,Boulder,40.007581,-105.265942,1,0,"2/27/1970: Unknown perpetrators detonated a bomb in the Behavioral Sciences Building at the University of Colorado at Boulder in Colorado, United States.  There were no casualties but the building was damaged.",1,0,Bombing/Explosion,Educational Institution,Student Radicals,Protesting scholarship money that was set aside for minorities but had yet to be awarded,0,-99,-99,Explosives,0,0,0,0,0,0
1.97002E+11,1970,2,28,0,Jordan,Middle East & North Africa,Khalil,Hebron,31.530243,35.094162,1,0,,1,0,Armed Assault,Tourists,Unknown,,0,,,Firearms,,,,,,
1.97003E+11,1970,3,0,0,Philippines,Southeast Asia,Metropolitian Manila,Manila,14.596051,120.978666,1,0,,1,0,Bombing/Explosion,Government (Diplomatic),Unknown,,0,,,Explosives,0,,,0,,
1.97003E+11,1970,3,1,0,Italy,Western Europe,Lazio,Rome,41.890961,12.490069,1,0,,0,0,Bombing/Explosion,Airports & Aircraft,Eritrean Liberation Front,,0,,,Explosives,0,,,0,,
1.97003E+11,1970,3,1,0,United States,North America,Colorado,Boulder,40.007581,-105.265942,1,0,"3/1/1970: Unknown perpetrators bombed the office of the Air Force R.O.T.C. at the University of Colorado in Boulder, Colorado, United States.  There were no casualties but the R.O.T.C. training facility sustained an estimated $2,000 in damages.",1,0,Bombing/Explosion,Military,Student Radicals,Protest the Vietnam War and the R.O.T.C.,0,-99,-99,Explosives,0,0,0,0,0,0
1.97003E+11,1970,3,1,0,United States,North America,Colorado,Colorado Springs,38.864281,-104.778412,1,0,"3/1/1970: Unknown perpetrators firebombed the headquarters of the Selective Service in Colorado Springs, Colorado, United States.  There were no casualties but the building sustained moderate damages.",1,0,Facility/Infrastructure Attack,Military,Left-Wing Militants,Protest the War in Vietnam and sabotage the draft,0,-99,-99,Incendiary,0,0,0,0,0,0
1.97003E+11,1970,3,1,0,United States,North America,Colorado,Boulder,40.007581,-105.265942,1,0,"3/1/1970: In a series of two incidents that were possibly related, unknown perpetrators firebombed a University of Colorado campus police vehicle in Boulder, Colorado, United States.  There were no casualties but the car was damaged.",1,0,Facility/Infrastructure Attack,Police,Student Radicals,,0,-99,-99,Incendiary,0,0,0,0,0,0
1.97003E+11,1970,3,1,0,United States,North America,Colorado,Boulder,40.014986,-105.270546,1,0,"3/2/1970: In a series of two incidents that were possibly related, unknown perpetrators bombed a city police car in Boulder, Colorado, United States.  There were no casualties but the car was damaged.",1,0,Bombing/Explosion,Police,Left-Wing Militants,,0,-99,-99,Explosives,0,0,0,0,0,0
1.97003E+11,1970,3,2,0,United States,North America,Ohio,Cleveland,41.479561,-81.675461,1,0,"3/2/1970: Unknown perpetrators threw a Molotov cocktail into the house of Frank Schaeffer, the president of the Cleveland Fraternal Order of Police, in Cleveland, Ohio, United States.  There were no casualties but the fire caused an estimated $200 in damages.  Schaeffer had recently defended the actions of Cleveland Police Officers during the 1968 racial disorders.",1,0,Facility/Infrastructure Attack,Private Citizens & Property,Black Nationalists,To protest Frank Schaeffer's defense of the Cleveland Police Deparment during the 1968 Glenville racial riots,0,-99,-99,Incendiary,0,0,0,0,0,0
1.97003E+11,1970,3,3,0,Spain,Western Europe,Unknown,Unknown,,,5,0,,0,0,Hostage Taking (Kidnapping),Government (General),1st of May Group,,0,3,,Unknown,0,,,0,,
1.97003E+11,1970,3,3,0,United States,North America,Colorado,Denver,39.758968,-104.876305,1,0,"3/3/1970: Unknown perpetrators bombed a foreign-made car painted red in Denver, Colorado, United States.  There were no casualties but the car was damaged.",1,0,Bombing/Explosion,Private Citizens & Property,Left-Wing Militants,,0,-99,-99,Explosives,0,0,0,0,0,0
1.97003E+11,1970,3,3,0,United States,North America,Washington,Seattle,47.610786,-122.331306,1,0,"3/3/1970: Four left wing radicals set off a dynamite bomb at a post office in Seattle, Washington, United States.  There were no casualties but the building and a vehicle were damaged.",1,0,Bombing/Explosion,Government (General),Student Radicals,,0,4,4,Explosives,0,0,0,0,0,0
1.97003E+11,1970,3,4,0,United States,North America,California,Oakland,37.791927,-122.225906,1,0,"3/4/1970: Unknown perpetrators placed a time bomb in a Barracks at the Oakland Army Base in California, United States.  The bomb was subsequently discovered and disarmed. The base was used as a departing point for United States troops heading to Vietnam.",0,0,Bombing/Explosion,Military,Left-Wing Militants,Sabotage the US Army war efforts and protest the Vietnam War,0,-99,-99,Explosives,0,0,0,0,0,0
1.97003E+11,1970,3,4,0,United States,North America,California,Martinez,38.019304,-122.134062,1,0,"3/4/1970: Unknown perpetrators placed a bomb on a railroad car in Martinez, California, United States.  The bomb was subsequently discovered and disarmed.  The railroad car was used to transport acid.",0,0,Bombing/Explosion,Transportation,Unknown,,0,-99,-99,Explosives,0,0,0,0,0,0
1.97003E+11,1970,3,4,0,United States,North America,Colorado,Denver,39.758968,-104.876305,1,0,"3/4/1970: Unknown perpetrators bombed a foreign-made car painted red in Denver, Colorado, United States.  There were no casualties but the car was damaged.",1,0,Bombing/Explosion,Private Citizens & Property,Left-Wing Militants,,0,-99,-99,Explosives,0,0,0,0,0,0
1.97003E+11,1970,3,5,0,United States,North America,Washington,Seattle,47.610786,-122.331306,1,0,"3/5/1970: Unknown perpetrators detonated a bomb at the University District Post Office in Seattle, Washington, United States.  There were no casualties, however, the side of the building was damaged.",1,0,Bombing/Explosion,Government (General),Left-Wing Militants,,0,-99,-99,Explosives,0,0,0,0,0,0
1.97003E+11,1970,3,5,0,United States,North America,Colorado,Denver,39.758968,-104.876305,1,0,"3/5/1970: Unknown perpetrators bombed a foreign-made car painted red in Denver, Colorado, United States.  There were no casualties but the car was heavily damaged.",1,0,Bombing/Explosion,Private Citizens & Property,Left-Wing Militants,,0,-99,-99,Explosives,0,0,0,0,0,0
1.97003E+11,1970,3,5,0,United States,North America,Puerto Rico,San Juan,18.386932,-66.061127,1,0,"3/5/1970: Unknown Puerto Rican Nationalists assassinated two United States Navy personal stationed in San Juan, Puerto Rico.  The incident was in response to the death of Antonia Martinez Lagaras, who was shot and killed during a confrontation between students and police in front of the R.O.T.C. building at the University of Puerto Rico, Rio Piedras a day earlier.",1,0,Assassination,Military,Armed Commandos of Liberation,To protest United States presence in Puerto Rico and revenge the death of Antonia Martinez Lagares,0,-99,-99,Firearms,2,2,0,0,0,0
1.97003E+11,1970,3,6,1,Guatemala,Central America & Caribbean,Guatemala,Guatemala City,14.622869,-90.529068,1,0,,1,0,Hostage Taking (Kidnapping),Government (Diplomatic),Rebel Armed Forces of Guatemala (FAR),,0,,,Firearms,0,,,0,,
1.97003E+11,1970,3,6,0,United States,North America,Michigan,Detroit,42.331685,-83.047924,1,0,"3/6/1970: In a series of related unsuccessful attacks, suspected members of the Weathermen placed thirty-four sticks of dynamite at the Detroit Police Department building in Michigan, United States.  The bombs were subsequently discovered and  disarmed.",0,0,Bombing/Explosion,Police,"Weather Underground, Weathermen",To kill police,0,-99,-99,Explosives,0,0,0,0,0,0
1.97003E+11,1970,3,6,0,United States,North America,Michigan,Detroit,42.331685,-83.047924,1,0,"3/6/1970: In a series of related unsuccessful attacks, suspected members of the Weathermen tossed a package containing dynamite through a window of the Detroit Police Officers Association in Michigan, United States.  The dynamite was  discovered and subsequently disarmed.",0,0,Bombing/Explosion,Police,"Weather Underground, Weathermen",To kill police,0,-99,-99,Explosives,0,0,0,0,0,0
1.97003E+11,1970,3,9,0,United States,North America,California,Berkeley,37.874043,-122.280022,1,0,,1,0,Facility/Infrastructure Attack,Educational Institution,Unknown,,0,,,Incendiary,0,,,0,,
1.97003E+11,1970,3,9,0,United States,North America,Alabama,Ashville,33.83651,-86.254749,1,0,,1,0,Facility/Infrastructure Attack,Private Citizens & Property,Ku Klux Klan,,0,,,Chemical,0,0,0,0,0,0
1.97003E+11,1970,3,9,0,United States,North America,Connecticut,Bridgeport,41.18188,-73.191269,1,0,"3/9/1970: Unknown perpetrators firebombed Shiloh Baptist Church, a predominantly African American Church, in Bridgeport, Connecticut, United States.  There were no casualties but the building sustained minor damages.",1,0,Facility/Infrastructure Attack,Religious Figures/Institutions,White supremacists/nationalists,,0,-99,-99,Incendiary,0,0,0,0,0,0
1.97003E+11,1970,3,9,0,United States,North America,New Mexico,Albuquerque,35.084319,-106.619781,1,0,"3/9/1970: Unknown perpetrators placed an incendiary bomb underneath the Air Force R.O.T.C. building at the University of New Mexico in Albuquerque, New Mexico, United States.  The bomb was discovered and disarmed fifteen minutes before it was set to explode.",0,0,Bombing/Explosion,Military,White supremacists/nationalists,Protest the R.O.T.C. program and Vietnam War,0,-99,-99,Explosives,0,0,0,0,0,0
1.97003E+11,1970,3,9,0,United States,North America,Maryland,Bel Air,39.53894,-76.348479,1,0,"3/9/1970: A bomb exploded in the car of Ralph Featherstone and William Payne, members of the Student non-violent Coordinating Committee and supporters of H. Rap Brown, while they were driving in Bel Air, Maryland, United States.  Both men died as a result of the blast.  Police suspected that the bomb exploded prematurely and was intended for H. Rap Brown's trial scheduled to be held  at the Harford County Courthouse   Many members of the radical Black community believed that the bomb was set off by White Racists or the police.  The next day, a bomb was detonated at Dorchester County Courthouse, the original location of Brown's trial, by an unknown perpetrator.",0,0,Bombing/Explosion,Unknown,Black Nationalists,The suspected motive was to disrupt the trial of H. Rap Brown,0,2,0,Explosives,2,2,2,0,0,0
1.97003E+11,1970,3,10,0,West Germany (FRG),Western Europe,Bavaria,Munich,48.139126,11.580186,1,0,,0,0,Bombing/Explosion,Government (General),Unknown,,0,,,Explosives,0,,,0,,
1.97003E+11,1970,3,10,0,United States,North America,Maryland,Cambridge,38.563122,-76.078063,1,0,"3/10/1970: An unidentified White middle-aged female was suspected of bombing the Dorchester County Courthouse in Cambridge, Maryland, United States where the trial for radical Black leader H. Rap Brown was originally scheduled to be held.  There were no casualties but the building sustained extensive damages.",1,0,Bombing/Explosion,Government (General),Left-Wing Militants,To disrupt the trial of H. Rap Brown,0,1,-99,Explosives,0,0,0,0,0,0
1.97003E+11,1970,3,10,0,United States,North America,California,San Francisco,37.755363,-122.443352,1,0,"3/10/1970: Unknown perpetrators threw a Molotov cocktail into the office of Dr. Samuel Ichiye Hayakawa, the president of San Francisco State College, in San Francisco, California, United States.  The bomb failed to ignite.  The next day their were violent protests on campus against military recruiters on the SFSC campus.  Previously, S. I. Hayakawa took a hard line against student demonstrators.",0,0,Facility/Infrastructure Attack,Business,Student Radicals,To protest the policies of S. I. Hayakawa towards student demonstrators,0,-99,-99,Incendiary,0,0,0,0,0,0
1.97003E+11,1970,3,11,1,Brazil,South America,Sao Paulo,Sao Paulo,-23.550711,-46.633475,1,0,,1,0,Hostage Taking (Kidnapping),Government (Diplomatic),Popular Revolutionary Vanguard (VPR),,0,6,,Unknown,0,,,0,,
1.97003E+11,1970,3,11,0,United States,North America,Illinois,Champaign,40.102408,-88.227159,1,0,"3/11/1970: Unknown perpetrators firebombed the Army and Air Force Recruiting Station at the University of Illinois, Champaign-Urbana, United States.  There were no casualties but the Recruiting Station was destroyed.",1,0,Facility/Infrastructure Attack,Military,Student Radicals,Protest the government's presence on the University of Illinois campus.,0,-99,-99,Incendiary,0,0,0,0,0,0
1.97003E+11,1970,3,12,0,United States,North America,New York,New York City,40.697132,-73.931351,1,0,,1,0,Bombing/Explosion,Business,Revolutionary Force 9,,0,,,Explosives,0,,,0,,
1.97003E+11,1970,3,12,0,United States,North America,New York,New York City,40.697132,-73.931351,1,0,,1,0,Bombing/Explosion,Business,Revolutionary Force 9,,0,,,Explosives,0,,,0,,
1.97003E+11,1970,3,12,0,United States,North America,Illinois,Chicago,41.842602,-87.681229,1,0,"3/12/1970:  In a series of two incidents that were possibly related, a bomb exploded underneath an empty police car parked in front of detective headquarters in Chicago, Illinois, United States.  There were no casualties but the car sustained minor damages.",1,0,Bombing/Explosion,Police,Black Nationalists,,0,-99,-99,Explosives,0,0,0,0,0,0
1.97003E+11,1970,3,12,0,United States,North America,Illinois,Chicago,41.842602,-87.681229,1,0,"3/12/1970:  In a series of two incidents that were possibly related, a cherry bomb was thrown at an empty police car in Chicago, Illinois, United States, after two officers left the vehicle responding to a call for help.  There were no casualties but the car was damaged.",1,0,Bombing/Explosion,Police,Black Nationalists,,0,-99,-99,Explosives,0,0,0,0,0,0
1.97003E+11,1970,3,12,0,United States,North America,New York,New York City,40.697132,-73.931351,1,0,"3/12/1970: In a series of related attacks, the Revolutionary Force 9 claimed credit for the bombing of the Mobil Oil Company Building in Manhattan, New York, United States.  There were no casualties but the building sustained heavy structural damage.  The Revolutionary Force 9 claimed that the Mobil Oil Company was an ""enem(y) of human life"" because it profited off of the Vietnam War.",1,0,Bombing/Explosion,Business,Revolutionary Force 9,Protest the Vietnam War and companies profiting from the war,0,-99,-99,Explosives,0,0,0,0,0,0
1.97003E+11,1970,3,13,0,United States,North America,Wisconsin,Appleton,44.260288,-88.397455,1,0,"3/13/1970: In a series of two incidents that were possibly related, unknown perpetrators set off a firebomb at the R.O.T.C. Building at Lawrence University in Appleton, Wisconsin, United States.  There were no casualties but the building sustained damage to its walls",1,0,Facility/Infrastructure Attack,Military,Student Radicals,Protest the R.O.T.C. program and Vietnam War,0,-99,-99,Incendiary,0,0,0,0,0,0
1.97003E+11,1970,3,13,0,United States,North America,Wisconsin,Appleton,44.268598,-88.42844,1,0,"3/13/1970: In a series of two incidents that were possibly related, unknown perpetrators threw two incendiary devices into Appleton West High School in Wisconsin, United States.  The firebombs caused a fire but there were no casualties.",1,0,Facility/Infrastructure Attack,Educational Institution,Student Radicals,,0,-99,-99,Incendiary,0,0,0,0,0,0
1.97003E+11,1970,3,14,1,Ethiopia,Sub-Saharan Africa,Unknown,Unknown,,,5,0,,1,0,Hostage Taking (Kidnapping),Journalists & Media,Eritrean Liberation Front,,0,,,Unknown,0,,,0,,
1.97003E+11,1970,3,14,0,Egypt,Middle East & North Africa,Alexandria,Alexandria,31.198056,29.919167,1,0,,1,0,Bombing/Explosion,Airports & Aircraft,Unknown,,0,,,Explosives,0,,,2,,
1.97003E+11,1970,3,14,0,United States,North America,New York,New York City,40.697132,-73.931351,1,0,"3/14/1970: Unknown perpetrators placed an explosive device outside of the U. S. Army Reserve Building in Fort Hamilton, New York, United States.  The device was discovered and disarmed.",0,0,Bombing/Explosion,Military,Left-Wing Militants,Protest the Vietnam War and sabotage the US Army,0,-99,-99,Explosives,0,0,0,0,0,0
1.97003E+11,1970,3,14,1,United States,North America,California,Long Beach,33.766725,-118.192399,1,0,"3/14/1970: Two crewmen on the SS Columbia Eagle, Clyde William McKay Jr. and Leonard Glatkowski, hijacked the ship which debarked from Long Beach, California, United States towards Thailand.  The ship was transporting munitions that were to be used by the US military in the Vietnam War.  Twenty four crewmen were released from the ship immediately after the hijacking while thirteen were held on board as the ship was diverted to Cambodia.  The next day the SS Columbia reached Cambodia and the two perpetrators attempted attain asylum.  After many negotiations, the ship and crew were allowed to return to the United States on April 8th and McKay and Glatkowski remained in Cambodia.",1,0,Hijacking,Military,Left-Wing Militants,To impede the US war effort and protest the Vietnam War,0,2,1,Firearms,0,0,0,0,0,0
1.97003E+11,1970,3,15,0,United States,North America,Puerto Rico,San Juan,18.386932,-66.061127,1,0,"3/15/1970: Unknown perpetrators detonated a bomb at a Kresge's Department Store in suburban San Juan, Puerto Rico.  There were no casualties and only minor damages were inflicted.  Kresge was an American owned company.",1,0,Bombing/Explosion,Business,Puerto Rican Nationalists,,0,-99,-99,Explosives,0,0,0,0,0,0
1.97003E+11,1970,3,15,0,United States,North America,Montana,Billings,45.783975,-108.505794,1,0,"3/15/1970: Unknown perpetrators detonated a bomb in the backseat of a parked police car in Billings, Montana, United States.  There were no casualties, however, the car was demolished.",1,0,Bombing/Explosion,Police,Unknown,,0,-99,-99,Explosives,0,0,0,0,0,0
1.97003E+11,1970,3,16,0,United States,North America,California,San Bernardino,34.105245,-117.294124,1,0,"3/16/1970: Unknown perpetrators threw four firebombs at the house of Councilman Norris Gregory in San Bernardino, California, United States.  He received minor burns attempting to put out the fire and the house sustained an estimated $4,000 in damages.  Gregory was the first and only Black councilman in San Bernadino at the time.",1,0,Facility/Infrastructure Attack,Government (General),White supremacists/nationalists,To protest African Americans sitting on the San Bernardino city council,0,-99,-99,Incendiary,0,0,0,1,1,0
1.97003E+11,1970,3,17,0,United States,North America,California,Los Angeles,34.097866,-118.407379,1,0,"3/17/1970: Suspected members of the Chicano Liberation Front detonated two bombs in administration offices at Roosevelt High School in Los Angeles, California, United States.  There were no casualties and the bombs caused little damage.",1,0,Bombing/Explosion,Educational Institution,Chicano Liberation Front,To protest the poor quality of education at a school district made up primarily of Mexican-Americans.,0,-99,-99,Explosives,0,0,0,0,0,0
1.97003E+11,1970,3,18,0,United States,North America,Ohio,Lockland,39.226835,-84.453309,1,0,"3/18/1970: Unknown perpetrators detonated a bomb at a booster station of the Cincinnati Gas & Electric Company in Lockland, Ohio, United States.  There were no casualties but the transformer sustained extensive damage.",1,0,Bombing/Explosion,Utilities,Unknown,,0,-99,-99,Explosives,0,0,0,0,0,0
1.97003E+11,1970,3,20,0,United States,North America,Oregon,Portland,45.511795,-122.675629,1,0,"3/20/1970: Unknown perpetrators placed two firebombs at the United States Army Reserve Training Center in Portland, Oregon, United States.  One bomb ignited but burnt out before causing any damage and the other bomb was found and dismantled.",0,0,Bombing/Explosion,Military,White supremacists/nationalists,Protest the Vietnam War and sabotage the US Army,0,-99,-99,Incendiary,0,0,0,0,0,0
1.97003E+11,1970,3,20,0,United States,North America,Michigan,Detroit,42.331685,-83.047924,1,0,"3/20/1970: Unknown perpetrators shot and killed Burton I. Gordin, the director of the Michigan Civil Rights Commission, in a downtown garage in Detroit, Michigan, United States.  Police suspected that this incident might have been politically motivated as no money was stolen from Gordin's wallet.",1,0,Assassination,Private Citizens & Property,White supremacists/nationalists,To protest the civil rights movement,0,-99,-99,Firearms,1,1,0,0,0,0
1.97003E+11,1970,3,21,0,United States,North America,District of Columbia,Washington,38.908642,-77.015381,1,0,"3/21/1970: In a series of related incidents, a letter bomb protesting the draft was sent to President Richard Nixon in Washington D.C., United States.  The bomb was intercepted and dismantled.",0,0,Bombing/Explosion,Government (General),Left-Wing Militants,To protest against the draft.,0,-99,-99,Explosives,0,0,0,0,0,0
1.97003E+11,1970,3,21,0,United States,North America,New York,New York City,40.697132,-73.931351,1,0,"3/21/1970: In a series of related attacks, a group called Puerto Rican Resistance claimed credit for an incendiary device that ignited at Bloomingdale's Department Store in Manhattan, New York, United States.  There were no casualties but the firebomb caused minor damage.",1,0,Facility/Infrastructure Attack,Business,Puerto Rican Resistance Movement,Promote Puerto Rican Independence,0,-99,-99,Incendiary,0,0,0,0,0,0
1.97003E+11,1970,3,21,0,United States,North America,New York,New York City,40.697132,-73.931351,1,0,"3/21/1970: In a series of related attacks, a group called Puerto Rican Resistance claimed credit for two incendiary devices that ignited at Alexander's Department Store in Manhattan, New York, United States.  One person was injured but the firebomb caused minor damage.",1,0,Facility/Infrastructure Attack,Business,Puerto Rican Resistance Movement,Promote Puerto Rican Independence,0,-99,-99,Incendiary,0,0,0,1,1,0
1.97003E+11,1970,3,22,0,United States,North America,New York,New York City,40.697132,-73.931351,1,0,"3/22/1970: In a series of related attacks, a member of the Black Panther Party detonated a pipe bomb at the brokerage firm Nagler, Weissman & Co. in the Bronx, New York, United States.  There were no casualties but the door and windows of the building were damaged.",1,0,Bombing/Explosion,Business,Black Panthers,Revolutionary movement against the financial establishment,0,1,1,Explosives,0,0,0,0,0,0
1.97003E+11,1970,3,22,0,United States,North America,New York,New York City,40.697132,-73.931351,1,0,"3/22/1970: In a series of related attacks, a member of the Black Panther Party placed a pipe bomb on the window ledge of Chase-Manhattan Bank in the Bronx, New York, United States.  Police discovered and disarmed the time bomb.",0,0,Bombing/Explosion,Business,Black Panthers,Revolutionary movement against the financial establishment,0,1,1,Explosives,0,0,0,0,0,0
1.97003E+11,1970,3,22,0,United States,North America,New York,New York City,40.697132,-73.931351,1,0,"3/22/1970: In a series of related attacks, a suspected member of the Black Panther Party detonated a pipe bomb at the Electric Circus Discotheque in Manhattan New York, United States.  Seventeen people were injured and the building sustained minor damages.",1,0,Bombing/Explosion,Business,Black Panthers,,0,1,0,Explosives,0,0,0,17,17,0
1.97003E+11,1970,3,23,0,United States,North America,Florida,Orlando,28.538235,-81.377389,1,0,"3/23/1970: Unknown perpetrators detonated a bomb that destroyed the local headquarters of the United Brotherhood of Carpenters and Joiners union in Orlando, Florida, United States.  There were no causalities.",1,0,Bombing/Explosion,Private Citizens & Property,Strikers,,0,-99,-99,Explosives,0,0,0,0,0,0
1.97003E+11,1970,3,24,0,Philippines,Southeast Asia,Pampanga,Angeles,15.153002,120.591942,1,0,,1,0,Unknown,Military,Unknown,,0,,,Unknown,1,1,,0,0,
1.97003E+11,1970,3,24,1,Dominican Republic,Central America & Caribbean,National,Santo Domingo,18.456792,-69.951164,1,0,,1,0,Hostage Taking (Kidnapping),Military,Dominican Popular Movement (MPD),,0,5,,Unknown,0,,,0,,
1.97003E+11,1970,3,24,1,Argentina,South America,Corrientes,Ituzaingo,-27.583246,-56.683334,1,0,,1,0,Hostage Taking (Kidnapping),Government (Diplomatic),Argentine Liberation Front (FAL),,0,,,Unknown,0,,,0,,
1.97003E+11,1970,3,24,0,United States,North America,New York,New York City,40.697132,-73.931351,1,0,"3/24/1970: Unknown perpetrators tossed a bomb through the window of Joe's Restaurant in Manhattan, New York, United States after it closed.  There were no casualties, however, windows and furniture were damaged.",1,0,Bombing/Explosion,Business,Unknown,,0,-99,-99,Explosives,0,0,0,0,0,0
1.97003E+11,1970,3,24,0,United States,North America,Ohio,Cleveland,41.479561,-81.675461,1,0,"3/24/1970: Unknown perpetrators detonated a pipe bomb at Auguste Rodin's Thinker statue that was located in front of the Cleveland Museum of Art in Ohio, United States.  There were no casualties, however, the statue was irrevocably damaged.",1,0,Bombing/Explosion,Private Citizens & Property,White supremacists/nationalists,Suspected motive was to protest the Vietnam War.,0,-99,0,Explosives,0,0,0,0,0,0
1.97003E+11,1970,3,24,0,United States,North America,California,Richmond,37.93781,-122.342709,1,0,"3/24/1970: Unknown perpetrators detonated a bomb outside of the home of a police officer in Richmond, California, United States.  There were no casualties, but the house sustained minor damages.",1,0,Bombing/Explosion,Police,Black Nationalists,,0,-99,-99,Explosives,0,0,0,0,0,0
1.97003E+11,1970,3,27,0,United States,North America,California,San Francisco,37.755363,-122.443352,1,0,"3/27/1970: Unknown perpetrators detonated a bomb at the Trovatore Tavern in San Francisco, California, United States.  The Tavern was across the street from the Hall of Justice and frequented by police officers.  There were no casualties, however, the building sustained $5,000 in damages.",1,0,Bombing/Explosion,Police,Black Nationalists,,0,-99,-99,Explosives,0,0,0,0,0,0
1.97003E+11,1970,3,29,0,Argentina,South America,Buenos Aires,Buenos Aires,-34.61768,-58.444435,1,0,,1,0,Hostage Taking (Kidnapping),Government (Diplomatic),Argentine National Organization Movement (MANO),,0,4,,Unknown,0,,,0,,
1.97003E+11,1970,3,29,0,Lebanon,Middle East & North Africa,Beirut,Beirut,33.888523,35.503513,1,0,,1,0,Bombing/Explosion,Government (Diplomatic),Popular Front for the Liberation of Palestine (PFLP),,0,,,Explosives,0,,,0,,
1.97003E+11,1970,3,30,0,United States,North America,Illinois,Biggsville,40.85122,-90.864369,1,0,"3/30/1970: Unknown perpetrators set fire to the Old State Bank of Biggsville building which housed the Selective Service Offices in Biggsville, Illinois, United States.  There were no casualties but the building and draft records were destroyed causing an estimated $10,500 in damages.",1,0,Facility/Infrastructure Attack,Government (General),Left-Wing Militants,Protest and sabotage the draft,0,-99,-99,Incendiary,0,0,0,0,0,0
1.97003E+11,1970,3,30,0,United States,North America,Georgia,Fort Benning,32.3575,-84.95623,1,0,"3/30/1971: A United States soldier threw a firebomb at the military courthouse in Fort Benning, Georgia, United States where the trial of Lt. William Calley was taking place.  Lt. William Calley was on trial for his involvement in the My Lai Massacre.  It is unknown if the attack was successful.",1,0,Facility/Infrastructure Attack,Military,Left-Wing Militants,To protest the trial of Lt. William Calley and show sympathy for the defendant,0,1,1,Incendiary,0,0,0,0,0,0
1.97003E+11,1970,3,31,1,Guatemala,Central America & Caribbean,Guatemala,Guatemala City,14.622869,-90.529068,1,0,,1,0,Hostage Taking (Kidnapping),Government (Diplomatic),Rebel Armed Forces of Guatemala (FAR),,0,,,Unknown,1,,,0,,
1.97003E+11,1970,3,31,1,Japan,East Asia,Fukouka,Fukouka,33.580412,130.396361,1,0,,1,0,Hijacking,Airports & Aircraft,Japanese Red Army (JRA),,0,,,Explosives,0,0,0,0,0,0
1.97003E+11,1970,3,31,0,United States,North America,District of Columbia,Washington,38.908642,-77.015381,1,0,"3/31/1970: In a series of related incidents, a letter bomb protesting the draft was sent to Curtis W. Tarr, the head of the Selective Services in Washington D.C., United States.  The bomb was intercepted and dismantled.",0,0,Bombing/Explosion,Government (General),Left-Wing Militants,To protest against the draft.,0,-99,-99,Explosives,0,0,0,0,0,0
1.97003E+11,1970,3,31,0,United States,North America,Washington,Seattle,47.610786,-122.331306,1,0,"3/31/1970: Unknown perpetrators bombed two jeeps owned by the University of Washington parked at the Seattle campus in Washington, United States.  There were no casualties, but the vehicles sustained major damages.",1,0,Bombing/Explosion,Educational Institution,Student Radicals,,0,-99,-99,Explosives,0,0,0,0,0,0
1.97004E+11,1970,4,0,1,Ethiopia,Sub-Saharan Africa,Unknown,Unknown,,,5,0,,1,0,Hostage Taking (Kidnapping),Government (Diplomatic),Eritrean Liberation Front,,0,,,Unknown,0,,,0,,
1.97004E+11,1970,4,1,0,United States,North America,Michigan,East Lansing,42.7375,-84.483779,1,0,"4/1/1970: Unknown perpetrators bombed the administration building at Michigan State University in East Lansing, Michigan, United States.  There were no casualties but the building sustained $500 in damages.",1,0,Bombing/Explosion,Educational Institution,Student Radicals,Protest racism and promote a leftist revolution,0,-99,-99,Explosives,0,0,0,0,0,0
1.97004E+11,1970,4,1,0,United States,North America,New York,Ithaca,42.455233,-76.475847,1,0,"4/1/1970: Unknown perpetrators started a fire at the building that houses the Africana Studies and Research Center at Cornell University in Ithaca, New York, United States.  There were no casualties but the building sustained an estimated $100,000 in damages.",1,0,Facility/Infrastructure Attack,Educational Institution,White supremacists/nationalists,To intimidate the African American community at Cornell University,0,-99,0,Incendiary,0,0,0,0,0,0
1.97004E+11,1970,4,1,0,United States,North America,Texas,Houston,29.813822,-95.365295,1,0,"4/1/1970: Unknown perpetrators set a kerosene fire to the Naval R.O.T.C. building at Rice University in Houston, Texas, United States.  There were no casualties but a hole was burned through one side of the building.",1,0,Facility/Infrastructure Attack,Military,Student Radicals,Protest the Vietnam War and the R.O.T.C.,0,-99,-99,Incendiary,0,0,0,0,0,0
1.97004E+11,1970,4,2,0,Philippines,Southeast Asia,Pampanga,Mabalacat City,15.185916,120.54187,1,1,,1,0,Unknown,Military,New People's Army (NPA),,0,,,Unknown,2,,,0,,
1.97004E+11,1970,4,2,0,United States,North America,New York,New York City,40.697132,-73.931351,1,0,"4/2/1970: Unknowns perpetrator placed a pipe bomb in a vestibule of Chase Manhattan Bank in the Bronx, New York, United States.  The bomb was discovered and subsequently dismantled by the police.",0,0,Bombing/Explosion,Business,Left-Wing Militants,Revolutionary movement against the financial establishment,0,-99,-99,Explosives,0,0,0,0,0,0
1.97004E+11,1970,4,3,0,Ireland,Western Europe,Dublin,Dublin,53.361675,-6.245485,1,0,,1,0,Armed Assault,Business,Saor Eire (Irish Republican Group),,0,,,Firearms,1,,,,,
1.97004E+11,1970,4,4,0,United States,North America,New York,New York City,40.697132,-73.931351,1,0,"4/4/1970: In a series of related attacks that failed, unknown perpetrators placed a pipe bomb at the Banco de Ponce in Manhattan, New York, United States.  The bomb was discovered and subsequently disarmed.",0,0,Bombing/Explosion,Business,Left-Wing Militants,Revolutionary movement against the financial establishment,0,-99,-99,Explosives,0,0,0,0,0,0
1.97004E+11,1970,4,4,0,United States,North America,New York,New York City,40.697132,-73.931351,1,0,"4/4/1970: In a series of related attacks that failed, unknown perpetrators placed a pipe bomb at a busy intersection in the Bronx, New York, United States.  The bomb was discovered and subsequently disarmed.",0,0,Bombing/Explosion,Private Citizens & Property,Left-Wing Militants,,0,-99,-99,Explosives,0,0,0,0,0,0
1.97004E+11,1970,4,4,0,United States,North America,Washington,Pullman,46.731958,-117.162603,1,0,"4/4/1970: Unknown perpetrators set a fire at Rogers Field Stadium at Washington State University in Pullman, Washington, United States.  There were no casualties, but the stadium sustained $700,000 in damages.",1,0,Facility/Infrastructure Attack,Educational Institution,Student Radicals,,0,-99,0,Incendiary,0,0,0,0,0,0
1.97004E+11,1970,4,5,0,Brazil,South America,Rio Grande do Sul,Porto Alegre,-30.034108,-51.217839,1,0,,0,0,Hostage Taking (Kidnapping),Government (Diplomatic),Popular Revolutionary Vanguard (VPR),,0,,,Unknown,0,,,1,,
1.97004E+11,1970,4,5,0,Argentina,South America,Buenos Aires,Buenos Aires,-34.61768,-58.444435,1,0,,1,0,Armed Assault,Military,Argentine Liberation Front (FAL),,0,,,Firearms,,,,,,
1.97004E+11,1970,4,5,0,United States,North America,California,Trona,35.76625,-117.370674,1,0,"4/5/1970: In a series of two incidents that were possibly related, unknown perpetrators bombed a power line pole supplying electrical power to a pumping station in Trona, California, United States.  There were no casualties but the power line pole was destroyed.  At the time, the American Potash Plant of Trona was the scene of a major workers strike.",1,0,Bombing/Explosion,Utilities,Strikers,,0,-99,-99,Explosives,0,0,0,0,0,0
1.97004E+11,1970,4,5,0,United States,North America,California,Trona,35.76625,-117.370674,1,0,"4/5/1970: In a series of two incidents that were possibly related, unknown perpetrators set fire to barracks owned by the American Potash and Chemical Company in Trona, California, United States.  There were no casualties but the barracks were damaged.  At the time, the American Potash Plant of Trona was the scene of a major workers strike.",1,0,Facility/Infrastructure Attack,Business,Strikers,,0,-99,-99,Incendiary,0,0,0,0,0,0
1.97004E+11,1970,4,5,0,United States,North America,New York,New York City,40.697132,-73.931351,1,0,"4/5/1970: Unknown perpetrators placed a bomb at the Young Women's Christian Association in Manhattan, New York, United States.  The bomb was discovered and subsequently disarmed.",0,0,Bombing/Explosion,NGO,Unknown,,0,-99,-99,Explosives,0,0,0,0,0,0
1.97004E+11,1970,4,5,0,United States,North America,Texas,Houston,29.813822,-95.365295,1,0,"4/5/1970: Unknown perpetrators set fire to the office of the dean of students at Rice University in Houston, Texas, United States.  There were no casualties but the office sustained an estimated $50,000 in damages.  Student records were also destroyed.",1,0,Facility/Infrastructure Attack,Educational Institution,Student Radicals,,0,-99,-99,Incendiary,0,0,0,0,0,0
1.97004E+11,1970,4,8,0,United States,North America,Kansas,Lawrence,38.973065,-95.236534,1,0,"4/8/1970: Unknown perpetrators bombed the building of Anchor Savings & Loan in Lawrence, Kansas, United States.  There were no casualties but two windows were shattered.",1,0,Bombing/Explosion,Business,Unknown,,0,-99,-99,Explosives,0,0,0,0,0,0
1.97004E+11,1970,4,8,0,United States,North America,Kansas,Baxter Springs,37.023676,-94.735504,1,0,"4/8/1970: Unknown perpetrators bombed the car of a person working at a strike bound company in Baxter, Kansas, United States.  There were no casualties but the car was damaged.",1,0,Bombing/Explosion,Private Citizens & Property,Strikers,Protest the strike,0,-99,-99,Explosives,0,0,0,0,0,0
1.97004E+11,1970,4,8,0,United States,North America,California,Los Angeles,34.097866,-118.407379,1,0,"4/8/1970: Suspected members of the Chicano Liberation Front set fire to the administration building at Roosevelt High School in Los Angeles, California, United States.  There were no casualties but the building sustained over $100,000 in damages.",1,0,Facility/Infrastructure Attack,Educational Institution,Chicano Liberation Front,To protest the poor quality of education at a school district made up primarily of Mexican-Americans.,0,-99,-99,Incendiary,0,0,0,0,0,0
1.97004E+11,1970,4,9,0,United States,North America,Illinois,East St. Louis,38.624421,-90.150603,1,0,"4/9/1970: Unknown assailants bombed a shovel crane belonging to the Waggoner Equipment Rental & Excavating Company in East St. Louis, Illinois, United States.  There were no casualties but the crane sustained an estimated $30,000 in damages.  The perpetrators were protesting outside companies that worked on construction projects in East St. Louis.",1,0,Bombing/Explosion,Business,Unknown,Protest non-local companies from working in East St. Louis,0,-99,-99,Explosives,0,0,0,0,0,0
1.97004E+11,1970,4,11,0,United States,North America,California,San Diego,32.715695,-117.161719,1,0,"4/11/1970: Unknown perpetrators bombed the barracks at the Imperial Beach Naval Air Station in San Diego, California, United States.  There were no casualties but the barracks building was damaged.",1,0,Bombing/Explosion,Military,Left-Wing Militants,Protest the Vietnam War,0,-99,-99,Explosives,0,0,0,0,0,0
1.97004E+11,1970,4,11,0,United States,North America,New York,Ithaca,42.455233,-76.475847,1,0,"4/11/1970: Two unknown individuals threw Molotov cocktails into the Olin Library, McGraw Hall, Morrill Hall, and Psi Upsilon fraternity at Cornell University in Ithaca, New York, United States.  Only two of the Molotov cocktails ignited and caused minor damage.  There were no casualties.",1,0,Facility/Infrastructure Attack,Educational Institution,Student Radicals,To destabilize Cornell University,0,2,-99,Incendiary,0,0,0,0,0,0
1.97004E+11,1970,4,11,0,United States,North America,Texas,Freeport,28.949564,-95.344371,1,0,"4/11/1970: Unknown perpetrators firebombed a storage tank at the Dow Chemical Company located north of Freeport, Texas, United States.  Five people received minor injuries from flying glass and an estimated $250,000 in damages was caused to the facilities.",1,0,Facility/Infrastructure Attack,Business,Unknown,,0,-99,-99,Incendiary,0,0,0,5,5,0
1.97004E+11,1970,4,13,0,United States,North America,California,Berkeley,37.874043,-122.280022,1,0,,1,0,Bombing/Explosion,Utilities,New World Liberation Front (NWLF),,0,,,Explosives,0,,,0,,
1.97004E+11,1970,4,13,0,United States,North America,Missouri,Kansas City,39.176086,-94.574127,1,0,"4/13/1970: In a series of related attacks, unknown perpetrators bombed East High School in Kansas City, Missouri, United States.  There were no casualties but the building sustained minor damage.",1,0,Bombing/Explosion,Educational Institution,Unknown,,0,-99,-99,Explosives,0,0,0,0,0,0
1.97004E+11,1970,4,13,0,United States,North America,Missouri,Kansas City,39.176086,-94.574127,1,0,"4/13/1970: In a series of related attacks, unknown perpetrators bombed Linwood Methodist Church in Kansas City, Missouri, United States.  There were no casualties but the building sustained minor damage.",1,0,Bombing/Explosion,Religious Figures/Institutions,Unknown,,0,-99,-99,Explosives,0,0,0,0,0,0
1.97004E+11,1970,4,13,0,United States,North America,Missouri,Kansas City,39.176086,-94.574127,1,0,"4/13/1970: In a series of related attacks, unknown perpetrators bombed the Police Academy of Kansas City, Missouri, United States.  There were no casualties but the windows of the Police Academy and surrounding buildings were shattered.",1,0,Bombing/Explosion,Police,Unknown,,0,-99,-99,Explosives,0,0,0,0,0,0
1.97004E+11,1970,4,14,0,United States,North America,California,Trona,35.76625,-117.370674,1,0,"4/14/1970: Unknown perpetrators bombed a sewer leading from the American Potash Plant in Trona, California, United States.  There were no casualties but a substantial part of the sewer was destroyed.  At the time, the American Potash Plant of Trona was the scene of a major workers strike.",1,0,Bombing/Explosion,Business,Strikers,,0,-99,-99,Explosives,0,0,0,0,0,0
1.97004E+11,1970,4,14,0,United States,North America,California,Long Beach,33.783824,-118.11409,1,0,"4/14/1970: Unknown perpetrators placed a pipe bomb in the Science Building at California State University, Long Beach, United States.  The bomb was discovered and subsequently disarmed.",0,0,Bombing/Explosion,Educational Institution,Student Radicals,,0,-99,-99,Explosives,0,0,0,0,0,0
1.97004E+11,1970,4,14,0,United States,North America,California,Los Angeles,34.097866,-118.407379,1,0,"4/14/1970: Unknown perpetrators placed a stick of dynamite, kerosene, a cloth rag, matches, and a cigarette explosive device at the May Company Department Store in Los Angeles, California, United States.  The weapons were discovered and removed by security officials.",0,0,Bombing/Explosion,Business,Unknown,,0,-99,-99,Explosives,0,0,0,0,0,0
1.97004E+11,1970,4,15,0,Jordan,Middle East & North Africa,Amman,Amman,31.950001,35.933331,1,0,,1,0,Bombing/Explosion,Government (Diplomatic),Popular Front for the Liberation of Palestine (PFLP),,0,,,Explosives,0,,,0,,
1.97004E+11,1970,4,15,0,United States,North America,California,Los Angeles,34.097866,-118.407379,1,0,"4/15/1970: Four Cuban refugees firebombed a building in Los Angeles, California, United States, occupied by pro-Castro sympathizers.  There were no casualties but the building was damaged.",1,0,Facility/Infrastructure Attack,Private Citizens & Property,Cuban Exiles,Intimidate pro-Castro sympathizers and protest Fidel Castro's government.,0,4,-99,Incendiary,0,0,0,0,0,0
1.97004E+11,1970,4,15,0,United States,North America,California,Los Angeles,34.097866,-118.407379,1,0,"4/15/1970: In a series of related attacks, suspected members of the Chicano Liberation Front set fire to the Board of Education administration building in Los Angeles, California, United States.  There were no casualties but the building sustained $75,000 in damages.",1,0,Facility/Infrastructure Attack,Educational Institution,Chicano Liberation Front,To protest the poor quality of education at a school district made up primarily of Mexican-Americans.,0,-99,-99,Incendiary,0,0,0,0,0,0
1.97004E+11,1970,4,15,0,United States,North America,California,Los Angeles,34.097866,-118.407379,1,0,"4/15/1970: In a series of related attacks, suspected members of the Chicano Liberation Front set fire to a storage structure at Roosevelt High School in Los Angeles, California, United States.  There were no casualties but the school sustained $20,000 in damages.",1,0,Facility/Infrastructure Attack,Educational Institution,Chicano Liberation Front,To protest the poor quality of education at a school district made up primarily of Mexican-Americans.,0,-99,-99,Incendiary,0,0,0,0,0,0
1.97004E+11,1970,4,16,0,United States,North America,Missouri,Kansas City,39.176086,-94.574127,1,0,"4/16/1970: In a series of related attacks, unknown perpetrators bombed the Plaza III Restaurant in Kansas City, Missouri, United States.  There were no casualties but the blast blew a hole through the ceiling of the restaurant.",1,0,Bombing/Explosion,Business,Unknown,,0,-99,-99,Explosives,0,0,0,0,0,0
1.97004E+11,1970,4,16,0,United States,North America,Missouri,Kansas City,39.176086,-94.574127,1,0,"4/16/1970: In a series of related attacks, unknown perpetrators bombed the Waltower Building in Kansas City, Missouri, United States.  There were no casualties but the building sustained extensive damages.",1,0,Bombing/Explosion,Private Citizens & Property,Unknown,,0,-99,-99,Explosives,0,0,0,0,0,0
1.97004E+11,1970,4,16,0,United States,North America,Missouri,Kansas City,39.176086,-94.574127,1,0,"4/16/1970: In a series of related attacks, unknown perpetrators bombed the Argyle Building in Kansas City, Missouri, United States.  There were no casualties but the building was damaged.",1,0,Bombing/Explosion,Private Citizens & Property,Unknown,,0,-99,-99,Explosives,0,0,0,0,0,0
1.97004E+11,1970,4,16,0,United States,North America,California,Trona,35.76625,-117.370674,1,0,"4/16/1970: Unknown perpetrators bombed railroad tracks leading to the American Potash Plant in Trona, California, United States.  There were no casualties but the tracks were partially damaged.  At the time, the American Potash Plant of Trona was the scene of a major workers strike.",1,0,Bombing/Explosion,Business,Strikers,,0,-99,-99,Explosives,0,0,0,0,0,0
1.97004E+11,1970,4,17,0,United States,North America,California,Oakland,37.791927,-122.225906,1,0,"4/17/1970: Suspected members of the Black Panther Party ambushed a police paddy wagon carrying two police officers and four prisoners in Oakland, California, United States.  Both police officers were critically wounded.  In the ensuing car chase, the perpetrators threw fragmentation grenades at police vehicles causing major damage.  Two of the assailants were eventually captured.",1,0,Armed Assault,Police,Black Panthers,To kill police,0,-99,2,Firearms,0,0,0,2,2,0
1.97004E+11,1970,4,19,0,United States,North America,Washington,Seattle,47.610786,-122.331306,1,0,"4/19/1970: In a simultaneous bombing campaign, suspected White Racists detonated an explosive device at the Japanese Presbyterian Church in Seattle, Washington, United States.  There were no casualties and the church sustained $2,000 in damages.",1,0,Bombing/Explosion,Religious Figures/Institutions,White supremacists/nationalists,To intimidate/show dissatisfaction with White sympathizers of the African American cause.,0,-99,-99,Explosives,0,0,0,0,0,0
1.97004E+11,1970,4,19,0,United States,North America,Washington,Seattle,47.610786,-122.331306,1,0,"4/19/1970: In a simultaneous bombing campaign, suspected White Racists detonated an explosive device at Hard Castle Realty, a real estate office that employed African Americans in Seattle, Washington, United States.  There were no casualties and the office sustained $4,000 in damages.",1,0,Bombing/Explosion,Business,White supremacists/nationalists,To intimidate/show dissatisfaction with White sympathizers of the African American cause.,0,-99,-99,Explosives,0,0,0,0,0,0
1.97004E+11,1970,4,19,0,United States,North America,Washington,Seattle,47.610786,-122.331306,1,0,"4/19/1970: In a simultaneous bombing campaign, suspected White Racists detonated an explosive device at a restaurant that was constructed by African Americans in Seattle, Washington, United States.  There were no casualties and the restaurant sustained around $2,000 in damages.",1,0,Bombing/Explosion,Business,White supremacists/nationalists,To intimidate/show dissatisfaction with White sympathizers of the African American cause.,0,-99,-99,Explosives,0,0,0,0,0,0
1.97004E+11,1970,4,19,0,United States,North America,Washington,Seattle,47.610786,-122.331306,1,0,"4/19/1970: In a simultaneous bombing campaign, suspected White Racists detonated an explosive device at the house of State Legislator David G. Sprague in Seattle, Washington, United States.  There were no casualties and the house sustained $1,000 in damages.",1,0,Bombing/Explosion,Government (General),White supremacists/nationalists,To intimidate/show dissatisfaction with White sympathizers of the African American cause.,0,-99,-99,Explosives,0,0,0,0,0,0
1.97004E+11,1970,4,19,0,United States,North America,New York,New York City,40.697132,-73.931351,1,0,"4/19/1970: Unknown perpetrators placed a pipe bomb in a corrections officer's car parked outside of the House of Detention in Queens, New York, United States, where ten Black Panthers members were held.  The bomb failed to explode and was discovered  after an unknown individual phoned the police stating ""we're going to blow up the jail in a half hour.  Free the Panther 21.""",0,0,Bombing/Explosion,Police,Black Nationalists,To coerce the government to free the Panther 21 from prison.,0,-99,-99,Explosives,0,0,0,3,3,0
1.97004E+11,1970,4,20,0,United States,North America,Kansas,Lawrence,38.954344,-95.255796,1,0,"4/20/1970: Unknown perpetrators firebombed the Student Union at the University of Kansas, Lawrence, United States.  There were no casualties but the building sustained approximately $3,000,000 in damages.",1,0,Facility/Infrastructure Attack,Educational Institution,Student Radicals,This attack occurred during heightened racial tensions in Lawrence Kansas.,0,-99,0,Incendiary,0,0,0,3,3,0
1.97004E+11,1970,4,21,0,Philippines,Southeast Asia,Unknown,Cauayan,,,5,0,,1,0,Bombing/Explosion,Airports & Aircraft,Unknown,,0,,,Explosives,36,,,0,,
1.97004E+11,1970,4,21,0,United States,North America,California,Los Angeles,34.097866,-118.407379,1,0,"4/21/1970:  Unknown perpetrators threw two Molotov Cocktails into a Bank of America branch in Los Angeles,  California, United States.  Another firebomb thrown into the facility did not explode.  There were no casualties but the building sustained an estimated $30,000 in damages.",1,0,Facility/Infrastructure Attack,Business,Left-Wing Militants,"Bank of America was perceived to symbolize the ""capitalist exploitation of the little man.""",0,3,-99,Incendiary,0,0,0,0,0,0
1.97004E+11,1970,4,22,0,United States,North America,California,Trona,35.76625,-117.370674,1,0,"4/22/1970: Unknown perpetrators bombed a pipeline supplying brine to the American Potash Plant in Trona, California, United States.  There were no casualties but the salt-water pipeline was destroyed and the fire hydrants of Trona were dry for around eight hours.  At the time, the American Potash Plant of Trona was the scene of a major workers strike.",1,0,Bombing/Explosion,Business,Strikers,,0,-99,-99,Explosives,0,0,0,0,0,0
1.97004E+11,1970,4,22,0,United States,North America,California,Berkeley,37.874043,-122.280022,1,0,"4/22/1970: In a series of related incidents, unknown perpetrators firebombed building T-9 at the University of California, Berkeley, United States.  There were no casualties but the upper floor of the building sustained extensive damages.",1,0,Facility/Infrastructure Attack,Educational Institution,Student Radicals,,0,-99,-99,Incendiary,0,0,0,0,0,0
1.97004E+11,1970,4,22,0,United States,North America,California,Berkeley,37.874043,-122.280022,1,0,"4/22/1970: In a series of related incidents, unknown perpetrators placed a firebomb in building T-7 at the University of California, Berkeley, United States.  The bomb was discovered before it ignited.",0,0,Facility/Infrastructure Attack,Educational Institution,Student Radicals,,0,-99,-99,Incendiary,0,0,0,0,0,0
1.97004E+11,1970,4,22,0,United States,North America,Wisconsin,Milwaukee,43.064388,-87.966202,1,0,"4/22/1970: Unknown perpetrators firebombed the Schmidt Building in Milwaukee, Wisconsin, United States.  There were no casualties but the facility was damaged.  Federal government offices were located in the building.",1,0,Facility/Infrastructure Attack,Government (General),Student Radicals,,0,-99,-99,Incendiary,0,0,0,0,0,0
1.97004E+11,1970,4,22,0,United States,North America,Illinois,Champaign,40.102408,-88.227159,1,0,"4/22/1970: Two women failed in their attempts to ignite a gasoline bomb at the University of Illinois' Police Station in Urbana, United States.",0,0,Facility/Infrastructure Attack,Police,Student Radicals,,0,2,-99,Incendiary,0,0,0,0,0,0
1.97004E+11,1970,4,22,0,United States,North America,California,Redlands,34.062685,-117.163181,1,0,"4/22/1970: Unknown perpetrators set off two firebombs at Redlands University in California, United States.  A Molotov cocktail destroyed offices in the administrative building and a bottle filled with inflammable liquid caused minor damages to a bathroom in the Hall of Letters.  There were no casualties but the total damage was estimated at $40,000.",1,0,Facility/Infrastructure Attack,Educational Institution,Left-Wing Militants,,0,-99,-99,Incendiary,0,0,0,0,0,0
1.97004E+11,1970,4,23,0,United States,North America,Puerto Rico,Aguada,18.379626,-67.188421,1,0,"4/23/1970: In a series of four related incidents, the Armed Commandos of Liberation claimed credit for placing bombs that were discovered in a U.S. Naval Relay Power Station in Puerto Rico. Cumulatively, fifty-one out of fifty-three bombs failed to explode with the remaining two bombs causing minor damage.",0,0,Bombing/Explosion,Military,Armed Commandos of Liberation,To cripple the telecommunications facilities of Puerto Rico,0,-99,-99,Explosives,0,0,0,0,0,0
1.97004E+11,1970,4,23,0,United States,North America,Puerto Rico,Aguada,18.379626,-67.188421,1,0,"4/23/1970: In a series of four related incidents, the Armed Commandos of Liberation claimed credit for placing bombs that were discovered in the offices of Motorola Inc. in Puerto Rico.  Cumulatively, fifty-one out of fifty-three bombs failed to explode with the remaining two bombs causing minor damage.",0,0,Bombing/Explosion,Telecommunication,Armed Commandos of Liberation,To cripple the telecommunications facilities of Puerto Rico,0,-99,-99,Explosives,0,0,0,0,0,0
1.97004E+11,1970,4,23,0,United States,North America,Puerto Rico,Aguada,18.379626,-67.188421,1,0,"4/23/1970: In a series of four related incidents, the Armed Commandos of Liberation claimed credit for placing bombs that were discovered at the International Telephone and Telegraph building in Puerto Rico.  Cumulatively, fifty-one out of fifty-three  bombs failed to explode with the remaining two bombs causing minor damage.",0,0,Bombing/Explosion,Telecommunication,Armed Commandos of Liberation,To cripple the telecommunications facilities of Puerto Rico,0,-99,-99,Explosives,0,0,0,0,0,0
1.97004E+11,1970,4,23,0,United States,North America,Puerto Rico,Aguada,18.379626,-67.188421,1,0,"4/23/1970: In a series of four related incidents, the Armed Commandos of Liberation claimed credit for placing bombs in a Puerto Rican police station.  The perpetrators were targeting communication devices.  Cumulatively, fifty-one out of fifty-three bombs failed to explode with the remaining two bombs causing minor damage.",0,0,Bombing/Explosion,Police,Armed Commandos of Liberation,To cripple the telecommunications facilities of Puerto Rico,0,-99,-99,Explosives,0,0,0,0,0,0
1.97004E+11,1970,4,24,0,United States,North America,California,Palo Alto,37.424305,-122.143913,1,0,"4/24/1970:  Unknown perpetrators threw firebombs into two separate wings of the Center for Advanced Studies of Behavioral Sciences Building at Stanford University in Palo Alto, California, United States.  There were no casualties but there was an estimated $100,000 in damages not including lost research.",1,0,Facility/Infrastructure Attack,Educational Institution,Student Radicals,Protest the presence of the R.O.T.C. at Stanford University.,0,-99,-99,Incendiary,0,0,0,0,0,0
1.97004E+11,1970,4,24,0,United States,North America,Maryland,Baltimore,39.308342,-76.616104,1,0,"4/24/1970: Three members of the Black Panthers Party opened fire on a police vehicle parked in Baltimore, Maryland, United States.  Patrolman Donald Sager was killed and police officer Stanley Sierakowski was critically wounded but survived.  The perpetrators were under orders from the Black Panthers to kill police.",1,0,Armed Assault,Police,Black Panthers,To kill police,0,3,3,Firearms,1,1,0,1,1,0
1.97004E+11,1970,4,24,0,United States,North America,New York,New York City,40.697132,-73.931351,1,0,"4/24/1970: Unknown perpetrators bombed the Army and Air Force Recruiting Office located in an office building in Manhattan, New York, United States.  There were no casualties but the building sustained extensive damages.",1,0,Bombing/Explosion,Military,Left-Wing Militants,Protest the Vietnam War and US military,0,-99,-99,Explosives,0,0,0,0,0,0
1.97004E+11,1970,4,24,0,United States,North America,New York,New York City,40.697132,-73.931351,1,0,"4/24/1970: Republic of China's Vice Premier, Chiang Ching-kuo was visiting the United States for a meeting of the Far East-America Council of Commerce and Industry. While entering Manhattan's Plaza Hotel for a luncheon, an Asian man ran towards Chiang, pointing a black automated pistol. New York Detective James Ziede, acting as Chiang's security, grabbed the  assailant's arm before he shot, deflecting the bullet aimed at Chiang towards the glass door and Chiang remained unharmed.  Peter Huang Wen-hsiung, a Taiwan-born Chinese, and his brother-in-law, Cheng Tzu-tsai, were the named assailants.",0,0,Assassination,Government (Diplomatic),The World United Formosans for Independence (WUFI),"Peter Huang Wen-hsiung Taiwan, a  member of WUFI, a pro-independence group, was opposed to the political views of the KMT, Chiang's party,  who favored the re-unification of Taiwan with mainland China.",0,2,2,Firearms,0,0,0,0,0,0
1.97004E+11,1970,4,25,0,Turkey,Middle East & North Africa,Istanbul,Istanbul,41.106178,28.689863,1,0,,1,0,Bombing/Explosion,Airports & Aircraft,Palestinians,,0,,,Explosives,0,,,0,,
1.97004E+11,1970,4,25,0,United States,North America,Pennsylvania,Philadelphia,40.008171,-75.13549,1,0,"4/25/1970: Doughtry Long, a former associate dean of students at the University of Pennsylvania, was arrested for throwing two Molotov cocktails into the Office of Community Relations in the College Hall building at the Philadelphia, United States campus.  There were no casualties and it is unknown whether the building sustained damages.",1,0,Facility/Infrastructure Attack,Educational Institution,Left-Wing Militants,Protest the University of Pennsylvania's policies towards minorities,0,1,1,Incendiary,0,0,0,0,0,0
1.97004E+11,1970,4,25,0,United States,North America,Michigan,East Lansing,42.7375,-84.483779,1,0,"4/25/1970: In a series of related incidents, unknown perpetrators bombed the East Lansing State Bank in East Lansing, Michigan United States.  There were no casualties but the building sustained minor damages.",1,0,Bombing/Explosion,Business,Left-Wing Militants,,0,-99,-99,Explosives,0,0,0,0,0,0
1.97004E+11,1970,4,25,0,United States,North America,Michigan,East Lansing,42.7375,-84.483779,1,0,"4/25/1970: In a series of related incidents, unknown perpetrators bombed the First National Bank in East Lansing, Michigan, United States.  There were no casualties but the building sustained minor damages.",1,0,Bombing/Explosion,Business,Left-Wing Militants,,0,-99,-99,Explosives,0,0,0,0,0,0
1.97004E+11,1970,4,25,0,United States,North America,Michigan,East Lansing,42.7375,-84.483779,1,0,"4/25/1970: In a series of related incidents, unknown perpetrators bombed the East Lansing Savings & Loan in East Lansing, Michigan, United States.  There were no casualties but the building sustained minor damages.",1,0,Bombing/Explosion,Business,Left-Wing Militants,,0,-99,-99,Explosives,0,0,0,0,0,0
1.97004E+11,1970,4,26,0,United States,North America,Louisiana,Baton Rouge,30.443335,-91.186994,1,0,,1,0,Bombing/Explosion,Government (General),Black Nationalists,,0,,,Explosives,0,,,0,,
1.97004E+11,1970,4,26,0,United States,North America,Louisiana,Baton Rouge,30.443335,-91.186994,1,1,"4/26/1970: In a series of two incidents that were possibly related, suspected Black nationalists bombed a water cooling tower adjacent to the Baton Rouge Country Club in Louisiana, United States moments before the Louisiana State Capital Building was bombed.  There were no casualties but the tower was destroyed and the country club sustained slight damages.",1,0,Bombing/Explosion,Food or Water Supply,Black Nationalists,,0,-99,-99,Explosives,0,0,0,0,0,0
1.97004E+11,1970,4,26,0,United States,North America,Minnesota,Robbinsdale,45.031807,-93.336547,1,0,"4/26/1970: Unknown perpetrators bombed the Selective Service Office, Local Board Number 51 in Robbinsdale, Minnesota, United States.  There were no casualties and it is unclear whether the building was damaged.",1,0,Bombing/Explosion,Government (General),Left-Wing Militants,To sabotage the draft,0,-99,-99,Explosives,0,0,0,0,0,0
